city,city_ascii,state_id,state_name,county_fips,county_name,lat,lng,population,population_proper,density,source,incorporated,timezone,zips,id,airports-3rddegree,airports-airblast1,airports-airblast5,airports-fireball,bases-3rddegree,bases-airblast1,bases-airblast5,bases-fireball,capitals-3rddegree,capitals-airblast1,capitals-airblast5,capitals-fireball,cities-3rddegree,cities-airblast1,cities-airblast5,cities-fireball,earthquakes10,earthquakes20,earthquakes50,earthquakes70,hurricanes-200-land,hurricanes-400-land,hurricanes-50-land,hurricanes-650-land,ports-3rddegree,ports-airblast1,ports-airblast5,ports-fireball,power-3rddegree,power-airblast1,power-airblast5,power-fireball,railyard-3rddegree,railyard-airblast1,railyard-airblast5,railyard-fireball,silo-3rddegree,silo-airblast1,silo-airblast5,silo-fireball,tornado10,tornado25,tornado40,tornado65,wildfires-1,wildfires-2,wildfires-3,wildfires-4
Renton,Renton,WA,Washington,"53033",King,"47.4758","-122.1905","101379","101379","1671",polygon,True,America/Los_Angeles,98059 98058 98057 98056 98055,"1840019827","1","1","0","0","0","0","0","0","0","0","0","0","1","1","1","1","1","1","0","0","0","0","0","0","0","1","0","0","0","0","0","0","1","1","1","1","0","0","0","0","0","0","0","0","0","0","0","0"
Mercer Island,Mercer Island,WA,Washington,"53033",King,"47.5625","-122.2265","25261","25261","1529",polygon,True,America/Los_Angeles,"98040","1840019830","1","1","1","0","0","1","0","0","0","0","0","0","1","1","1","0","1","1","0","0","0","0","0","0","1","1","0","0","0","0","0","0","1","1","1","0","0","0","0","0","0","0","0","0","0","0","0","0"
Lynnwood,Lynnwood,WA,Washington,"53061",Snohomish,"47.8285","-122.3034","38273","38273","1886",polygon,True,America/Los_Angeles,98037 98036 98046,"1840019788","1","1","0","0","0","1","0","0","0","0","0","0","0","1","0","0","1","1","0","0","0","0","0","0","0","1","0","0","0","0","0","0","0","1","0","0","0","0","0","0","0","0","0","0","0","0","0","0"
Centralia,Centralia,WA,Washington,"53041",Lewis,"46.7226","-122.9695","41643.0","17216","884",polygon,True,America/Los_Angeles,"98531","1840018471","0","0","0","0","0","1","0","0","0","0","0","0","0","0","0","0","1","1","0","0","0","0","0","0","0","0","0","0","1","1","0","0","1","1","1","0","0","0","0","0","0","0","0","0","0","0","0","0"
Mountlake Terrace,Mountlake Terrace,WA,Washington,"53061",Snohomish,"47.7920","-122.3076","21337","21337","2021",polygon,True,America/Los_Angeles,"98043","1840019792","1","1","0","0","0","1","0","0","0","0","0","0","0","1","0","0","1","1","0","0","0","0","0","0","0","1","0","0","0","0","0","0","1","1","0","0","0","0","0","0","0","0","0","0","0","0","0","0"
Seattle,Seattle,WA,Washington,"53033",King,"47.6211","-122.3244","3643765.0","724745","3337",polygon,True,America/Los_Angeles,98109 98108 98104 98107 98106 98101 98103 98102 98105 98154 98122 98121 98126 98125 98178 98174 98177 98144 98146 98195 98199 98118 98119 98116 98117 98115 98112 98164 98134 98136 98133 98111 98113 98114 98124 98127 98129 98139 98141 98145 98161 98165 98170 98175 98181 98185 98191 98194,"1840021117","1","1","0","0","1","1","0","0","0","0","0","0","1","1","1","1","1","1","0","0","0","0","0","0","1","1","1","0","0","0","0","0","1","1","1","0","0","0","0","0","0","0","0","0","0","0","0","0"
Oak Harbor,Oak Harbor,WA,Washington,"53029",Island,"48.2965","-122.6330","34663.0","23187","934",polygon,True,America/Los_Angeles,"98277","1840019779","0","0","0","0","1","1","1","1","0","0","0","0","0","0","0","0","1","1","0","0","0","0","0","0","0","0","0","0","0","0","0","0","0","0","0","0","0","0","0","0","0","0","0","0","0","0","0","0"
Anacortes,Anacortes,WA,Washington,"53057",Skagit,"48.4878","-122.6292","17955.0","16953","559",polygon,True,America/Los_Angeles,"98221","1840018366","0","0","0","0","1","1","0","0","0","0","0","0","0","0","0","0","1","1","0","0","0","0","0","0","1","1","1","0","0","0","0","0","0","1","0","0","0","0","0","0","0","0","0","0","0","0","0","0"
Grandview,Grandview,WA,Washington,"53077",Yakima,"46.2431","-119.9084","18858.0","11129","670",polygon,True,America/Los_Angeles,98935 98930,"1840019871","0","0","0","0","0","0","0","0","0","0","0","0","0","0","0","0","0","0","0","0","0","0","0","0","0","0","0","0","0","0","0","0","0","0","0","0","0","0","0","0","0","0","0","0","0","0","0","0"
Kelso,Kelso,WA,Washington,"53015",Cowlitz,"46.1248","-122.8908","12130","12130","580",polygon,True,America/Los_Angeles,98626 98632,"1840018503","0","0","0","0","0","0","0","0","0","0","0","0","0","0","0","0","1","0","0","0","0","0","0","0","1","1","1","0","0","0","0","0","1","1","1","0","0","0","0","0","0","0","0","0","0","0","0","0"
Cheney,Cheney,WA,Washington,"53063",Spokane,"47.4902","-117.5789","12421.0","12446","1106",polygon,True,America/Los_Angeles,"99004","1840018398","1","1","0","0","1","1","0","0","0","0","0","0","0","1","0","0","0","0","0","0","0","0","0","0","0","0","0","0","0","0","0","0","1","1","1","1","0","0","0","0","0","0","0","0","0","0","0","0"
Lacey,Lacey,WA,Washington,"53067",Thurston,"47.0450","-122.7931","49748","49748","1168",polygon,True,America/Los_Angeles,98516 98503 98509,"1840019866","1","1","0","0","1","1","1","0","1","1","0","0","1","1","1","0","1","1","0","0","0","0","0","0","1","1","0","0","0","0","0","0","1","1","0","0","0","0","0","0","0","0","0","0","0","0","0","0"
Edmonds,Edmonds,WA,Washington,"53061",Snohomish,"47.8114","-122.3533","42209","42209","1829",polygon,True,America/Los_Angeles,98026 98020,"1840037645","1","1","0","0","0","1","0","0","0","0","0","0","0","1","0","0","1","1","0","0","0","0","0","0","0","1","0","0","0","0","0","0","0","1","0","0","0","0","0","0","0","0","0","0","0","0","0","0"
Lake Forest Park,Lake Forest Park,WA,Washington,"53033",King,"47.7596","-122.2879","13392","13392","1469",polygon,True,America/Los_Angeles,"98155","1840019837","1","1","0","0","0","1","0","0","0","0","0","0","1","1","0","0","1","1","0","0","0","0","0","0","0","1","0","0","0","0","0","0","1","1","0","0","0","0","0","0","0","0","0","0","0","0","0","0"
Yakima,Yakima,WA,Washington,"53077",Yakima,"46.5923","-120.5496","133233.0","93667","1302",polygon,True,America/Los_Angeles,98901 98903 98902 98908 98904 98907,"1840021154","0","0","0","0","1","1","0","0","0","0","0","0","1","1","1","1","0","0","0","0","0","0","0","0","0","0","0","0","0","0","0","0","1","1","1","0","0","0","0","0","0","0","0","0","0","0","0","0"
Lynden,Lynden,WA,Washington,"53073",Whatcom,"48.9503","-122.4544","17340.0","14259","1019",polygon,True,America/Los_Angeles,"98264","1840019752","0","0","0","0","0","0","0","0","0","0","0","0","0","1","0","0","1","0","0","0","0","0","0","0","0","0","0","0","0","0","0","0","1","1","0","0","0","0","0","0","0","0","0","0","0","0","0","0"
Federal Way,Federal Way,WA,Washington,"53033",King,"47.3090","-122.3359","96690","96690","1680",polygon,True,America/Los_Angeles,98023 98003 98063 98093,"1840019826","0","0","0","0","0","1","0","0","0","0","0","0","1","1","0","0","1","1","0","0","0","0","0","0","1","1","0","0","0","0","0","0","1","1","1","0","0","0","0","0","0","0","0","0","0","0","0","0"
Mill Creek,Mill Creek,WA,Washington,"53061",Snohomish,"47.8633","-122.2034","20832","20832","1747",polygon,True,America/Los_Angeles,98012 98082,"1840019790","1","1","1","0","1","1","0","0","0","0","0","0","1","1","0","0","1","1","0","0","0","0","0","0","1","1","0","0","0","0","0","0","1","1","0","0","0","0","0","0","0","0","0","0","0","0","0","0"
Lakewood,Lakewood,WA,Washington,"53053",Pierce,"47.1628","-122.5299","60296","60296","1361",polygon,True,America/Los_Angeles,98499 98498 98496 98497,"1840019860","0","0","0","0","1","1","1","0","0","0","0","0","1","1","0","0","1","1","0","0","0","0","0","0","1","1","0","0","0","0","0","0","1","1","0","0","0","0","0","0","0","0","0","0","0","0","0","0"
Port Angeles,Port Angeles,WA,Washington,"53009",Clallam,"48.1142","-123.4565","23865.0","19872","716",polygon,True,America/Los_Angeles,98363 98362,"1840019782","0","0","0","0","0","0","0","0","0","0","0","0","0","0","0","0","1","1","0","0","0","0","0","0","1","1","1","0","0","0","0","0","0","0","0","0","0","0","0","0","0","0","0","0","0","0","0","0"
Longview,Longview,WA,Washington,"53015",Cowlitz,"46.1460","-122.9630","65619.0","37602","976",polygon,True,America/Los_Angeles,"98632","1840019904","0","0","0","0","0","0","0","0","0","0","0","0","0","0","0","0","1","0","0","0","0","0","0","0","1","1","1","0","0","0","0","0","1","1","1","0","0","0","0","0","0","0","0","0","0","0","0","0"
Arlington,Arlington,WA,Washington,"53061",Snohomish,"48.1697","-122.1446","19212","19212","756",polygon,True,America/Los_Angeles,"98223","1840018378","0","0","0","0","1","1","1","0","0","0","0","0","1","1","0","0","1","1","0","0","0","0","0","0","0","1","0","0","0","0","0","0","1","1","1","0","0","0","0","0","0","0","0","0","0","0","0","0"
Sammamish,Sammamish,WA,Washington,"53033",King,"47.6019","-122.0419","64548","64548","1219",polygon,True,America/Los_Angeles,98029 98075 98074,"1840021115","0","1","0","0","0","0","0","0","0","0","0","0","1","1","0","0","1","1","0","0","0","0","0","0","0","0","0","0","0","0","0","0","0","1","0","0","0","0","0","0","0","0","0","0","0","0","0","0"
Covington,Covington,WA,Washington,"53033",King,"47.3668","-122.1044","20916","20916","1363",polygon,True,America/Los_Angeles,"98042","1840018425","0","0","0","0","0","0","0","0","0","0","0","0","1","1","0","0","1","1","0","0","0","0","0","0","0","0","0","0","0","0","0","0","1","1","0","0","0","0","0","0","0","0","0","0","0","0","0","0"
Wenatchee,Wenatchee,WA,Washington,"53007",Chelan,"47.4338","-120.3285","71512.0","33962","1325",polygon,True,America/Los_Angeles,"98801","1840021074","0","0","0","0","0","0","0","0","0","0","0","0","0","0","0","0","0","0","0","0","0","0","0","0","0","0","0","0","1","1","0","0","1","1","1","1","0","0","0","0","0","0","0","0","0","0","0","0"
Sedro-Woolley,Sedro-Woolley,WA,Washington,"53057",Skagit,"48.5113","-122.2320","11838","11838","1057",polygon,True,America/Los_Angeles,"98284","1840021066","0","0","0","0","0","0","0","0","0","0","0","0","0","0","0","0","1","1","0","0","0","0","0","0","0","0","0","0","0","0","0","0","1","1","0","0","0","0","0","0","0","0","0","0","0","0","0","0"
Sunnyside,Sunnyside,WA,Washington,"53077",Yakima,"46.3159","-120.0058","17927.0","16407","842",polygon,True,America/Los_Angeles,"98944","1840021150","0","0","0","0","0","1","0","0","0","0","0","0","0","0","0","0","0","0","0","0","0","0","0","0","0","0","0","0","0","0","0","0","0","0","0","0","0","0","0","0","0","0","0","0","0","0","0","0"
SeaTac,SeaTac,WA,Washington,"53033",King,"47.4445","-122.2986","29140","29140","1126",polygon,True,America/Los_Angeles,98158 98148 98198 98168 98188 98131,"1840021116","1","1","0","0","0","1","0","0","0","0","0","0","1","1","0","0","1","1","0","0","0","0","0","0","1","1","0","0","0","0","0","0","1","1","1","0","0","0","0","0","0","0","0","0","0","0","0","0"
Kennewick,Kennewick,WA,Washington,"53005",Benton,"46.1979","-119.1732","232915.0","81607","1147",polygon,True,America/Los_Angeles,99337 99336 99338,"1840018481","1","1","0","0","0","0","0","0","0","0","0","0","1","1","1","1","0","0","0","0","0","0","0","0","0","0","0","0","0","0","0","0","1","1","1","0","0","0","0","0","0","0","0","0","0","0","0","0"
Pullman,Pullman,WA,Washington,"53075",Whitman,"46.7342","-117.1661","33276.0","33354","1229",polygon,True,America/Los_Angeles,99164 99163,"1840019864","0","0","0","0","0","0","0","0","0","0","0","0","0","0","0","0","0","0","0","0","0","0","0","0","0","0","0","0","0","0","0","0","0","1","0","0","0","0","0","0","0","0","0","0","0","0","0","0"
West Richland,West Richland,WA,Washington,"53005",Benton,"46.3115","-119.3997","14596","14596","254",polygon,True,America/Los_Angeles,99320 99353,"1840021168","0","1","0","0","0","0","0","0","0","0","0","0","0","1","0","0","0","0","0","0","0","0","0","0","0","0","0","0","0","1","0","0","1","1","0","0","0","0","0","0","0","0","0","0","0","0","0","0"
Maple Valley,Maple Valley,WA,Washington,"53033",King,"47.3660","-122.0369","25758","25758","1663",polygon,True,America/Los_Angeles,"98038","1840019828","0","0","0","0","0","0","0","0","0","0","0","0","1","1","0","0","1","1","0","0","0","0","0","0","0","0","0","0","0","0","0","0","1","1","0","0","0","0","0","0","0","0","0","0","0","0","0","0"
Auburn,Auburn,WA,Washington,"53033",King,"47.3041","-122.2110","80776","80776","1057",polygon,True,America/Los_Angeles,98001 98002 98092,"1840018416","0","0","0","0","0","0","0","0","0","0","0","0","1","1","0","0","1","1","0","0","0","0","0","0","0","1","0","0","0","0","0","0","1","1","1","0","0","0","0","0","0","0","0","0","0","0","0","0"
Bainbridge Island,Bainbridge Island,WA,Washington,"53035",Kitsap,"47.6439","-122.5434","24522","24522","342",polygon,True,America/Los_Angeles,98110 98061,"1840018409","0","1","0","0","1","1","1","0","0","0","0","0","1","1","0","0","1","1","0","0","0","0","0","0","1","1","0","0","0","0","0","0","1","1","0","0","0","0","0","0","0","0","0","0","0","0","0","0"
Edgewood,Edgewood,WA,Washington,"53053",Pierce,"47.2309","-122.2832","11213","11213","515",polygon,True,America/Los_Angeles,98372 98371,"1840019852","0","0","0","0","0","1","0","0","0","0","0","0","1","1","0","0","1","1","0","0","0","0","0","0","1","1","0","0","0","0","0","0","1","1","1","0","0","0","0","0","0","0","0","0","0","0","0","0"
Othello,Othello,WA,Washington,"53001",Adams,"46.8222","-119.1651","12375.0","8132","790",polygon,True,America/Los_Angeles,"99344","1840019862","0","0","0","0","0","0","0","0","0","0","0","0","0","0","0","0","0","0","0","0","0","0","0","0","0","0","0","0","0","0","0","0","1","1","1","1","0","0","0","0","0","0","0","0","0","0","0","0"
University Place,University Place,WA,Washington,"53053",Pierce,"47.2148","-122.5460","33401","33401","1547",polygon,True,America/Los_Angeles,98466 98467 98464,"1840021130","0","0","0","0","1","1","1","0","0","0","0","0","1","1","1","0","1","1","0","0","0","0","0","0","1","1","0","0","0","0","0","0","1","1","0","0","0","0","0","0","0","0","0","0","0","0","0","0"
Poulsbo,Poulsbo,WA,Washington,"53035",Kitsap,"47.7417","-122.6407","10670","10670","869",polygon,True,America/Los_Angeles,"98370","1840019822","0","0","0","0","1","1","1","0","0","0","0","0","0","1","0","0","1","1","0","0","0","0","0","0","0","0","0","0","0","0","0","0","0","1","0","0","0","0","0","0","0","0","0","0","0","0","0","0"
Kent,Kent,WA,Washington,"53033",King,"47.3887","-122.2128","128458","128458","1470",polygon,True,America/Los_Angeles,98031 98030 98032 98042 98035 98064 98089,"1840018424","0","1","0","0","0","0","0","0","0","0","0","0","1","1","1","1","1","1","0","0","0","0","0","0","0","1","0","0","0","0","0","0","1","1","1","0","0","0","0","0","0","0","0","0","0","0","0","0"
Mukilteo,Mukilteo,WA,Washington,"53061",Snohomish,"47.9094","-122.3035","21469","21469","1323",polygon,True,America/Los_Angeles,"98275","1840019793","1","1","1","0","1","1","0","0","0","0","0","0","1","1","0","0","1","1","0","0","0","0","0","0","1","1","0","0","0","0","0","0","1","1","0","0","0","0","0","0","0","0","0","0","0","0","0","0"
Kirkland,Kirkland,WA,Washington,"53033",King,"47.6997","-122.2041","88630","88630","1921",polygon,True,America/Los_Angeles,98034 98033 98011 98083,"1840019836","0","1","0","0","0","0","0","0","0","0","0","0","1","1","0","0","1","1","0","0","0","0","0","0","0","1","0","0","0","0","0","0","1","1","0","0","0","0","0","0","0","0","0","0","0","0","0","0"
Redmond,Redmond,WA,Washington,"53033",King,"47.6762","-122.1166","64291","64291","1506",polygon,True,America/Los_Angeles,98052 98073,"1840019835","0","1","0","0","0","0","0","0","0","0","0","0","1","1","0","0","1","1","0","0","0","0","0","0","0","1","0","0","0","0","0","0","0","1","0","0","0","0","0","0","0","0","0","0","0","0","0","0"
Tukwila,Tukwila,WA,Washington,"53033",King,"47.4748","-122.2727","20144","20144","847",polygon,True,America/Los_Angeles,98108 98178 98168 98188 98138 98190,"1840021120","1","1","1","0","0","1","0","0","0","0","0","0","1","1","1","0","1","1","0","0","0","0","0","0","1","1","0","0","0","0","0","0","1","1","1","0","0","0","0","0","0","0","0","0","0","0","0","0"
Yelm,Yelm,WA,Washington,"53067",Thurston,"46.9398","-122.6261","16504.0","9125","618",polygon,True,America/Los_Angeles,98576 98597,"1840021146","0","1","0","0","1","1","1","0","0","0","0","0","0","0","0","0","1","1","0","0","0","0","0","0","0","0","0","0","0","0","0","0","1","1","0","0","0","0","0","0","0","0","0","0","0","0","0","0"
Olympia,Olympia,WA,Washington,"53067",Thurston,"47.0418","-122.8959","196078.0","51609","1094",polygon,True,America/Los_Angeles,98501 98502 98506 98504 98507 98508 98511,"1840019865","1","1","1","0","1","1","0","0","1","1","1","1","1","1","1","1","1","1","0","0","0","0","0","0","1","1","1","0","0","0","0","0","1","1","1","0","0","0","0","0","0","0","0","0","0","0","0","0"
Fife,Fife,WA,Washington,"53053",Pierce,"47.2328","-122.3517","10154","10154","684",polygon,True,America/Los_Angeles,"98424","1840019853","0","0","0","0","1","1","0","0","0","0","0","0","1","1","1","0","1","1","0","0","0","0","0","0","1","1","0","0","0","0","0","0","1","1","1","1","0","0","0","0","0","0","0","0","0","0","0","0"
Port Orchard,Port Orchard,WA,Washington,"53035",Kitsap,"47.5160","-122.6615","13997","13997","559",polygon,True,America/Los_Angeles,98366 98367,"1840019821","0","0","0","0","1","1","1","0","0","0","0","0","1","1","1","0","1","1","0","0","0","0","0","0","0","0","0","0","0","0","0","0","1","1","1","0","0","0","0","0","0","0","0","0","0","0","0","0"
Bremerton,Bremerton,WA,Washington,"53035",Kitsap,"47.5436","-122.7122","216480.0","41041","557",polygon,True,America/Los_Angeles,98312 98314 98310 98367 98337,"1840018410","0","0","0","0","1","1","1","0","0","0","0","0","1","1","1","1","1","1","0","0","0","0","0","0","0","0","0","0","0","0","0","0","1","1","1","0","0","0","0","0","0","0","0","0","0","0","0","0"
Lake Stevens,Lake Stevens,WA,Washington,"53061",Snohomish,"48.0029","-122.0960","32785","32785","1424",polygon,True,America/Los_Angeles,98258 98205,"1840019794","0","1","0","0","1","1","0","0","0","0","0","0","1","1","1","0","1","1","0","0","0","0","0","0","1","1","0","0","0","0","0","0","1","1","1","0","0","0","0","0","0","0","0","0","0","0","0","0"
Tacoma,Tacoma,WA,Washington,"53053",Pierce,"47.2431","-122.4531","213418","213418","1657",polygon,True,America/Los_Angeles,98422 98403 98404 98405 98408 98409 98402 98406 98407 98465 98416 98418 98444 98421 98401 98411 98412 98413 98415 98417 98419 98471 98481 98490,"1840021129","0","0","0","0","1","1","0","0","0","0","0","0","1","1","1","1","1","1","0","0","0","0","0","0","1","1","1","0","0","0","0","0","1","1","1","0","0","0","0","0","0","0","0","0","0","0","0","0"
Woodinville,Woodinville,WA,Washington,"53033",King,"47.7569","-122.1478","11997","11997","824",polygon,True,America/Los_Angeles,"98072","1840021121","0","1","0","0","0","1","0","0","0","0","0","0","0","1","0","0","1","1","0","0","0","0","0","0","0","0","0","0","0","0","0","0","0","1","0","0","0","0","0","0","0","0","0","0","0","0","0","0"
Sequim,Sequim,WA,Washington,"53009",Clallam,"48.0747","-123.0944","20750.0","7108","432",polygon,True,America/Los_Angeles,"98382","1840021076","0","0","0","0","0","1","0","0","0","0","0","0","0","0","0","0","1","1","0","0","0","0","0","0","0","0","0","0","0","0","0","0","0","0","0","0","0","0","0","0","0","0","0","0","0","0","0","0"
Moses Lake,Moses Lake,WA,Washington,"53025",Grant,"47.1285","-119.2741","37774.0","23328","499",polygon,True,America/Los_Angeles,"98837","1840019817","1","1","0","0","1","1","0","0","0","0","0","0","0","0","0","0","0","0","0","0","0","0","0","0","0","0","0","0","0","0","0","0","0","0","0","0","0","0","0","0","0","0","0","0","0","0","0","0"
Puyallup,Puyallup,WA,Washington,"53053",Pierce,"47.1794","-122.2902","41001","41001","1119",polygon,True,America/Los_Angeles,98374 98372 98371 98373 98352,"1840019859","0","0","0","0","1","1","0","0","0","0","0","0","1","1","0","0","1","1","0","0","0","0","0","0","0","1","0","0","0","0","0","0","1","1","0","0","0","0","0","0","0","0","0","0","0","0","0","0"
Sumner,Sumner,WA,Washington,"53053",Pierce,"47.2189","-122.2338","10093","10093","517",polygon,True,America/Los_Angeles,"98390","1840021128","0","0","0","0","0","1","0","0","0","0","0","0","0","1","0","0","1","1","0","0","0","0","0","0","0","1","0","0","0","0","0","0","1","1","1","0","0","0","0","0","0","0","0","0","0","0","0","0"
Walla Walla,Walla Walla,WA,Washington,"53071",Walla Walla,"46.0670","-118.3365","57779.0","32854","939",polygon,True,America/Los_Angeles,"99362","1840021174","0","0","0","0","0","0","0","0","0","0","0","0","0","0","0","0","0","0","0","0","0","0","0","0","0","0","0","0","0","0","0","0","1","1","1","1","0","0","0","0","0","0","0","0","0","0","0","0"
Bothell,Bothell,WA,Washington,"53033",King,"47.7736","-122.2044","45533","45533","1287",polygon,True,America/Los_Angeles,98021 98011 98041,"1840018419","1","1","0","0","0","1","0","0","0","0","0","0","0","1","0","0","1","1","0","0","0","0","0","0","0","0","0","0","0","0","0","0","0","1","0","0","0","0","0","0","0","0","0","0","0","0","0","0"
Tumwater,Tumwater,WA,Washington,"53067",Thurston,"46.9890","-122.9172","22973","22973","509",polygon,True,America/Los_Angeles,98501 98512,"1840021145","1","1","1","0","1","1","0","0","1","1","1","0","1","1","1","0","1","1","0","0","0","0","0","0","1","1","0","0","0","0","0","0","1","1","1","0","0","0","0","0","0","0","0","0","0","0","0","0"
Monroe,Monroe,WA,Washington,"53061",Snohomish,"47.8596","-121.9853","18789","18789","1183",polygon,True,America/Los_Angeles,"98272","1840019791","0","0","0","0","0","1","0","0","0","0","0","0","0","1","0","0","1","1","0","0","0","0","0","0","0","0","0","0","0","0","0","0","0","1","0","0","0","0","0","0","0","0","0","0","0","0","0","0"
Des Moines,Des Moines,WA,Washington,"53033",King,"47.3914","-122.3154","31238","31238","1875",polygon,True,America/Los_Angeles,98148 98198,"1840018426","1","1","0","0","0","1","0","0","0","0","0","0","1","1","1","0","1","1","0","0","0","0","0","0","1","1","0","0","0","0","0","0","1","1","1","0","0","0","0","0","0","0","0","0","0","0","0","0"
Snohomish,Snohomish,WA,Washington,"53061",Snohomish,"47.9277","-122.0970","10089","10089","1117",polygon,True,America/Los_Angeles,98290 98291,"1840021078","1","1","0","0","1","1","0","0","0","0","0","0","1","1","1","0","1","1","0","0","0","0","0","0","1","1","0","0","0","0","0","0","1","1","0","0","0","0","0","0","0","0","0","0","0","0","0","0"
Richland,Richland,WA,Washington,"53005",Benton,"46.2826","-119.2938","56243","56243","556",polygon,True,America/Los_Angeles,99352 99354,"1840019889","1","1","0","0","0","0","0","0","0","0","0","0","1","1","0","0","0","0","0","0","0","0","0","0","0","0","0","0","0","1","0","0","1","1","1","0","0","0","0","0","0","0","0","0","0","0","0","0"
Washougal,Washougal,WA,Washington,"53011",Clark,"45.5812","-122.3433","15711","15711","1109",polygon,True,America/Los_Angeles,"98671","1840021190","0","1","0","0","0","1","0","0","0","0","0","0","1","1","0","0","1","0","0","0","0","0","0","0","0","0","0","0","0","0","0","0","0","0","0","0","0","0","0","0","0","0","0","0","0","0","0","0"
Bonney Lake,Bonney Lake,WA,Washington,"53053",Pierce,"47.1788","-122.1699","20675","20675","1003",polygon,True,America/Los_Angeles,"98391","1840018454","0","0","0","0","0","1","0","0","0","0","0","0","0","1","0","0","1","1","0","0","0","0","0","0","0","0","0","0","0","0","0","0","1","1","0","0","0","0","0","0","0","0","0","0","0","0","0","0"
Spokane Valley,Spokane Valley,WA,Washington,"53063",Spokane,"47.6625","-117.2346","97847","97847","1001",polygon,True,America/Los_Angeles,99206 99016 99212 99216 99037 99211 99213 99215,"1840021094","0","0","0","0","0","0","0","0","0","0","0","0","1","1","0","0","0","0","0","0","0","0","0","0","0","0","0","0","0","0","0","0","1","1","1","0","0","0","0","0","0","0","0","0","0","0","0","0"
Bellevue,Bellevue,WA,Washington,"53033",King,"47.5953","-122.1551","144444","144444","1666",polygon,True,America/Los_Angeles,98004 98005 98006 98007 98008 98009 98015,"1840018417","1","1","0","0","0","0","0","0","0","0","0","0","1","1","1","1","1","1","0","0","0","0","0","0","1","1","0","0","0","0","0","0","1","1","0","0","0","0","0","0","0","0","0","0","0","0","0","0"
Marysville,Marysville,WA,Washington,"53061",Snohomish,"48.0809","-122.1558","166541.0","68864","1290",polygon,True,America/Los_Angeles,98271 98270,"1840019789","0","1","0","0","1","1","1","0","0","0","0","0","1","1","1","1","1","1","0","0","0","0","0","0","1","1","0","0","0","0","0","0","1","1","0","0","0","0","0","0","0","0","0","0","0","0","0","0"
Newcastle,Newcastle,WA,Washington,"53033",King,"47.5303","-122.1633","11681","11681","1014",polygon,True,America/Los_Angeles,98059 98056,"1840019831","1","1","0","0","0","0","0","0","0","0","0","0","1","1","1","0","1","1","0","0","0","0","0","0","1","1","0","0","0","0","0","0","1","1","1","0","0","0","0","0","0","0","0","0","0","0","0","0"
Snoqualmie,Snoqualmie,WA,Washington,"53033",King,"47.5293","-121.8412","26054.0","13500","725",polygon,True,America/Los_Angeles,"98065","1840021119","0","0","0","0","0","0","0","0","0","0","0","0","0","0","0","0","1","1","0","0","0","0","0","0","0","0","0","0","0","0","0","0","0","0","0","0","0","0","0","0","0","0","0","0","0","0","0","0"
Enumclaw,Enumclaw,WA,Washington,"53033",King,"47.2017","-121.9897","11784","11784","878",polygon,True,America/Los_Angeles,"98022","1840019825","0","0","0","0","0","0","0","0","0","0","0","0","0","0","0","0","1","1","0","0","0","0","0","0","0","0","0","0","0","0","0","0","0","1","0","0","0","0","0","0","0","0","0","0","0","0","0","0"
Shelton,Shelton,WA,Washington,"53045",Mason,"47.2188","-123.1127","19296.0","10146","675",polygon,True,America/Los_Angeles,"98584","1840021123","0","0","0","0","0","0","0","0","0","0","0","0","0","0","0","0","1","1","0","0","0","0","0","0","0","1","0","0","0","0","0","0","0","0","0","0","0","0","0","0","0","0","0","0","0","0","0","0"
Bellingham,Bellingham,WA,Washington,"53073",Whatcom,"48.7543","-122.4687","126015.0","89045","1241",polygon,True,America/Los_Angeles,98229 98225 98226 98228,"1840018346","0","0","0","0","0","0","0","0","0","0","0","0","1","1","1","1","1","1","0","0","0","0","0","0","0","0","0","0","0","0","0","0","1","1","1","1","0","0","0","0","0","0","0","0","0","0","0","0"
Kenmore,Kenmore,WA,Washington,"53033",King,"47.7532","-122.2459","22867","22867","1436",polygon,True,America/Los_Angeles,"98028","1840018423","0","1","0","0","0","1","0","0","0","0","0","0","1","1","0","0","1","1","0","0","0","0","0","0","0","1","0","0","0","0","0","0","1","1","0","0","0","0","0","0","0","0","0","0","0","0","0","0"
Ellensburg,Ellensburg,WA,Washington,"53037",Kittitas,"46.9994","-120.5470","23471.0","20326","1022",polygon,True,America/Los_Angeles,"98926","1840019841","0","0","0","0","1","1","0","0","0","0","0","0","0","0","0","0","1","0","0","0","0","0","0","0","0","0","0","0","0","0","0","0","0","0","0","0","0","0","0","0","0","0","0","0","0","0","0","0"
East Wenatchee,East Wenatchee,WA,Washington,"53017",Douglas,"47.4172","-120.2809","13983","13983","1425",polygon,True,America/Los_Angeles,"98802","1840019795","0","0","0","0","0","0","0","0","0","0","0","0","0","0","0","0","0","0","0","0","0","0","0","0","0","0","0","0","1","1","0","0","1","1","1","0","0","0","0","0","0","0","0","0","0","0","0","0"
Spokane,Spokane,WA,Washington,"53063",Spokane,"47.6671","-117.4330","403043.0","217108","1218",polygon,True,America/Los_Angeles,99201 99203 99202 99205 99204 99207 99208 99224 99223 99001 99212 99209 99210 99219 99220 99252 99256 99258 99260,"1840021093","1","1","0","0","1","1","0","0","0","0","0","0","1","1","1","1","0","0","0","0","0","0","0","0","0","0","0","0","0","0","0","0","1","1","1","0","0","0","0","0","0","0","0","0","0","0","0","0"
Camas,Camas,WA,Washington,"53011",Clark,"45.6003","-122.4306","23331","23331","646",polygon,True,America/Los_Angeles,"98607","1840018524","1","1","0","0","1","1","0","0","0","0","0","0","1","1","0","0","1","0","0","0","0","0","0","0","0","1","0","0","0","0","0","0","0","1","0","0","0","0","0","0","0","0","0","0","0","0","0","0"
Pasco,Pasco,WA,Washington,"53021",Franklin,"46.2503","-119.1298","73013","73013","837",polygon,True,America/Los_Angeles,99301 99302,"1840019888","1","1","1","0","0","0","0","0","0","0","0","0","1","1","1","0","0","0","0","0","0","0","0","0","0","0","0","0","0","0","0","0","1","1","1","0","0","0","0","0","0","0","0","0","0","0","0","0"
Issaquah,Issaquah,WA,Washington,"53033",King,"47.5421","-122.0445","37487","37487","1193",polygon,True,America/Los_Angeles,98029 98027,"1840018422","0","1","0","0","0","0","0","0","0","0","0","0","1","1","0","0","1","1","0","0","0","0","0","0","0","0","0","0","0","0","0","0","1","1","0","0","0","0","0","0","0","0","0","0","0","0","0","0"
Toppenish,Toppenish,WA,Washington,"53077",Yakima,"46.3807","-120.3124","14441.0","8906","1627",polygon,True,America/Los_Angeles,"98948","1840021151","0","0","0","0","0","1","0","0","0","0","0","0","0","0","0","0","0","0","0","0","0","0","0","0","0","0","0","0","0","0","0","0","0","0","0","0","0","0","0","0","0","0","0","0","0","0","0","0"
Vancouver,Vancouver,WA,Washington,"53011",Clark,"45.6352","-122.5970","175673","175673","1444",polygon,True,America/Los_Angeles,98664 98660 98661 98662 98663 98682 98683 98684 98687,"1840021189","1","1","1","0","1","1","1","0","0","0","0","0","1","1","1","1","1","0","0","0","0","0","0","0","1","1","1","0","0","0","0","0","1","1","1","0","0","0","0","0","0","0","0","0","0","0","0","0"
Battle Ground,Battle Ground,WA,Washington,"53011",Clark,"45.7764","-122.5413","20576","20576","938",polygon,True,America/Los_Angeles,"98604","1840018523","0","1","0","0","0","1","0","0","0","0","0","0","1","1","0","0","1","0","0","0","0","0","0","0","0","1","0","0","0","0","0","0","1","1","0","0","0","0","0","0","0","0","0","0","0","0","0","0"
Mount Vernon,Mount Vernon,WA,Washington,"53057",Skagit,"48.4202","-122.3116","69528.0","35051","1099",polygon,True,America/Los_Angeles,98274 98273,"1840019774","0","0","0","0","0","1","0","0","0","0","0","0","0","0","0","0","1","1","0","0","0","0","0","0","0","0","0","0","0","0","0","0","1","1","1","0","0","0","0","0","0","0","0","0","0","0","0","0"
Ferndale,Ferndale,WA,Washington,"53073",Whatcom,"48.8525","-122.5892","14026","14026","775",polygon,True,America/Los_Angeles,"98248","1840019751","0","0","0","0","0","0","0","0","0","0","0","0","1","1","0","0","1","1","0","0","0","0","0","0","0","0","0","0","0","0","0","0","1","1","0","0","0","0","0","0","0","0","0","0","0","0","0","0"
Aberdeen,Aberdeen,WA,Washington,"53027",Grays Harbor,"46.9757","-123.8095","29089.0","16462","585",polygon,True,America/Los_Angeles,"98520","1840018446","0","0","0","0","0","0","0","0","0","0","0","0","0","0","0","0","1","1","0","0","0","0","0","0","0","0","0","0","0","0","0","0","1","1","1","1","0","0","0","0","0","0","0","0","0","0","0","0"
Shoreline,Shoreline,WA,Washington,"53033",King,"47.7564","-122.3426","56189","56189","1864",polygon,True,America/Los_Angeles,98155 98177 98133 98160,"1840021118","0","1","0","0","0","1","0","0","0","0","0","0","1","1","0","0","1","1","0","0","0","0","0","0","0","1","0","0","0","0","0","0","1","1","0","0","0","0","0","0","0","0","0","0","0","0","0","0"
Everett,Everett,WA,Washington,"53061",Snohomish,"47.9524","-122.1670","110079","110079","1278",polygon,True,America/Los_Angeles,98207 98204 98205 98203 98201 98208 98275 98206 98213,"1840019785","1","1","0","0","1","1","1","0","0","0","0","0","1","1","1","1","1","1","0","0","0","0","0","0","1","1","1","0","0","0","0","0","1","1","1","0","0","0","0","0","0","0","0","0","0","0","0","0"
Burien,Burien,WA,Washington,"53033",King,"47.4762","-122.3393","51671","51671","1983",polygon,True,America/Los_Angeles,98146 98148 98168 98166 98062,"1840018420","1","1","1","0","0","1","0","0","0","0","0","0","1","1","0","0","1","1","0","0","0","0","0","0","1","1","0","0","0","0","0","0","1","1","1","0","0","0","0","0","0","0","0","0","0","0","0","0"
Manassas Park,Manassas Park,VA,Virginia,"51685",Manassas Park (city),"38.7719","-77.4450","16591","16591","2537",polygon,True,America/New_York,"20111","1840003838","0","0","0","0","1","1","0","0","0","0","0","0","0","0","0","0","0","0","0","0","0","0","1","0","0","0","0","0","0","0","0","0","0","0","0","0","0","0","0","0","1","1","0","0","0","0","0","0"
Fairfax,Fairfax,VA,Virginia,"51600",Fairfax (city),"38.8531","-77.2997","24097","24097","1491",polygon,True,America/New_York,22030 22031 22037,"1840001650","0","0","0","0","1","1","0","0","0","0","0","0","1","1","0","0","0","0","0","0","0","0","1","0","0","0","0","0","0","0","0","0","0","0","0","0","0","0","0","0","1","1","0","0","0","0","0","0"
Waynesboro,Waynesboro,VA,Virginia,"51820",Waynesboro (city),"38.0674","-78.9013","22327","22327","576",polygon,True,America/New_York,"22980","1840003848","0","0","0","0","0","0","0","0","0","0","0","0","0","0","0","0","0","0","0","0","0","0","1","0","0","0","0","0","0","0","0","0","0","0","0","0","0","0","0","0","1","0","0","0","0","0","0","0"
Winchester,Winchester,VA,Virginia,"51840",Winchester (city),"39.1735","-78.1746","74031.0","27932","1173",polygon,True,America/New_York,22601 22604,"1840001623","0","0","0","0","0","1","0","0","0","0","0","0","0","0","0","0","0","0","0","0","0","0","1","0","0","0","0","0","0","1","0","0","0","1","0","0","0","0","0","0","1","0","0","0","0","0","0","0"
Radford,Radford,VA,Virginia,"51750",Radford (city),"37.1229","-80.5587","17658","17658","704",polygon,True,America/New_York,24142 24141 24143,"1840003864","0","0","0","0","1","1","1","0","0","0","0","0","0","0","0","0","0","0","0","0","0","0","0","0","0","0","0","0","0","0","0","0","0","0","0","0","0","0","0","0","0","0","0","0","0","0","0","0"
Richmond,Richmond,VA,Virginia,"51760",Richmond (city),"37.5295","-77.4756","1059907.0","227032","1463",polygon,True,America/New_York,23234 23222 23223 23220 23221 23226 23227 23224 23225 23230 23235 23219 23173 23218 23232 23249 23260 23261 23269 23274 23276 23278 23282 23284 23285 23286 23289 23290 23291 23292 23295 23298,"1840001698","1","1","0","0","1","1","0","0","1","1","1","0","1","1","1","1","0","0","0","0","0","0","1","0","0","0","0","0","1","1","0","0","1","1","1","0","0","0","0","0","1","0","0","0","0","0","0","0"
Virginia Beach,Virginia Beach,VA,Virginia,"51810",Virginia Beach (city),"36.7335","-76.0435","1480383.0","450435","710",polygon,True,America/New_York,23459 23451 23453 23452 23455 23457 23456 23454 23460 23461 23462 23464 23450 23458 23463 23465 23466 23467 23471 23479,"1840003871","0","1","0","0","1","1","1","0","0","0","0","0","1","1","1","1","0","0","0","0","1","1","1","0","0","0","0","0","0","0","0","0","0","1","0","0","0","0","0","0","1","0","0","0","0","0","0","0"
Herndon,Herndon,VA,Virginia,"51059",Fairfax,"38.9700","-77.3867","24532","24532","2209",polygon,True,America/New_York,20170 20172 22095,"1840006037","0","0","0","0","1","1","0","0","0","0","0","0","0","0","0","0","0","0","0","0","0","0","1","0","0","0","0","0","0","0","0","0","0","1","0","0","0","0","0","0","1","1","0","0","0","0","0","0"
Chesapeake,Chesapeake,VA,Virginia,"51550",Chesapeake (city),"36.6778","-76.3024","240397","240397","274",polygon,True,America/New_York,23323 23325 23324 23322 23321 23320 23326 23327 23328,"1840003874","0","1","0","0","1","1","0","0","0","0","0","0","1","1","1","1","0","0","0","0","1","1","1","0","0","1","0","0","0","0","0","0","1","1","0","0","0","0","0","0","1","0","0","0","0","0","0","0"
Purcellville,Purcellville,VA,Virginia,"51107",Loudoun,"39.1378","-77.7110","15112.0","9771","1114",polygon,True,America/New_York,20132 20134,"1840005875","0","0","0","0","0","0","0","0","0","0","0","0","0","0","0","0","0","0","0","0","0","0","1","0","0","0","0","0","0","0","0","0","0","1","0","0","0","0","0","0","1","1","0","0","0","0","0","0"
Charlottesville,Charlottesville,VA,Virginia,"51540",Charlottesville (city),"38.0375","-78.4855","102016.0","48019","1809",polygon,True,America/New_York,22901 22902 22903 22905 22906 22909,"1840001678","0","0","0","0","0","0","0","0","0","0","0","0","1","1","1","1","0","0","0","0","0","0","1","0","0","0","0","0","0","0","0","0","1","1","1","1","0","0","0","0","1","0","0","0","0","0","0","0"
Smithfield,Smithfield,VA,Virginia,"51093",Isle of Wight,"36.9754","-76.6162","10551.0","8355","342",polygon,True,America/New_York,23430 23431,"1840006487","0","1","0","0","1","1","0","0","0","0","0","0","1","1","0","0","0","0","0","0","1","0","1","0","0","0","0","0","0","1","0","0","1","1","0","0","0","0","0","0","1","0","0","0","0","0","0","0"
Norfolk,Norfolk,VA,Virginia,"51710",Norfolk (city),"36.8945","-76.2590","244703","244703","1773",polygon,True,America/New_York,23509 23508 23507 23504 23503 23502 23505 23518 23510 23513 23517 23551 23523 23511 23501 23506 23514 23515 23519 23529 23541,"1840003869","1","1","1","0","1","1","1","0","0","0","0","0","1","1","1","1","0","0","0","0","1","0","1","0","1","1","1","0","0","0","0","0","1","1","1","0","0","0","0","0","1","0","0","0","0","0","0","0"
Petersburg,Petersburg,VA,Virginia,"51730",Petersburg (city),"37.2043","-77.3913","31750","31750","539",polygon,True,America/New_York,23803 23805 23804,"1840003861","0","0","0","0","1","1","1","0","0","0","0","0","0","0","0","0","0","0","0","0","0","0","1","0","1","1","0","0","0","1","0","0","1","1","1","0","0","0","0","0","1","1","0","0","0","0","0","0"
Falls Church,Falls Church,VA,Virginia,"51610",Falls Church (city),"38.8847","-77.1751","14583","14583","2751",polygon,True,America/New_York,22046 22040,"1840003835","0","0","0","0","1","1","1","0","0","0","0","0","1","1","0","0","0","0","0","0","0","0","1","0","0","0","0","0","0","0","0","0","1","1","0","0","0","0","0","0","1","1","0","0","0","0","0","0"
Martinsville,Martinsville,VA,Virginia,"51690",Martinsville (city),"36.6827","-79.8636","33363.0","13142","463",polygon,True,America/New_York,24112 24113 24114 24115,"1840001727","0","0","0","0","0","0","0","0","0","0","0","0","0","0","0","0","0","0","0","0","0","0","1","0","0","0","0","0","0","0","0","0","0","0","0","0","0","0","0","0","1","0","0","0","0","0","0","0"
Danville,Danville,VA,Virginia,"51590",Danville (city),"36.5831","-79.4088","47135.0","41130","371",polygon,True,America/New_York,24540 24541,"1840003878","0","0","0","0","0","0","0","0","0","0","0","0","0","0","0","0","0","0","0","0","0","0","1","0","0","0","0","0","0","0","0","0","1","1","1","0","0","0","0","0","1","0","0","0","0","0","0","0"
Manassas,Manassas,VA,Virginia,"51683",Manassas (city),"38.7479","-77.4839","41501","41501","1626",polygon,True,America/New_York,20110 20108,"1840003839","0","0","0","0","1","1","0","0","0","0","0","0","0","0","0","0","0","0","0","0","0","0","1","0","0","0","0","0","0","0","0","0","0","0","0","0","0","0","0","0","1","1","0","0","0","0","0","0"
Suffolk,Suffolk,VA,Virginia,"51800",Suffolk (city),"36.6953","-76.6398","90237","90237","87",polygon,True,America/New_York,23433 23432 23437 23436 23435 23434 23438 23439,"1840003873","1","1","1","0","0","1","0","0","0","0","0","0","0","0","0","0","0","0","0","0","1","0","1","0","0","0","0","0","0","0","0","0","0","0","0","0","0","0","0","0","1","1","0","0","0","0","0","0"
Harrisonburg,Harrisonburg,VA,Virginia,"51660",Harrisonburg (city),"38.4362","-78.8735","74023.0","54215","1207",polygon,True,America/New_York,22801 22802 22807 22803,"1840003844","0","0","0","0","0","0","0","0","0","0","0","0","0","0","0","0","0","0","0","0","0","0","1","0","0","0","0","0","0","0","0","0","0","1","0","0","0","0","0","0","1","0","0","0","0","0","0","0"
Fredericksburg,Fredericksburg,VA,Virginia,"51630",Fredericksburg (city),"38.2992","-77.4872","164976.0","28360","1047",polygon,True,America/New_York,22401 22404 22412,"1840003845","0","0","0","0","1","1","0","0","0","0","0","0","1","1","1","1","0","0","0","0","0","0","1","0","0","0","0","0","0","0","0","0","0","0","0","0","0","0","0","0","1","1","0","0","0","0","0","0"
Culpeper,Culpeper,VA,Virginia,"51047",Culpeper,"38.4705","-78.0001","19986.0","18413","977",polygon,True,America/New_York,"22701","1840006169","0","0","0","0","0","0","0","0","0","0","0","0","0","0","0","0","0","0","0","0","0","0","1","0","0","0","0","0","0","0","0","0","0","0","0","0","0","0","0","0","1","1","0","0","0","0","0","0"
Blacksburg,Blacksburg,VA,Virginia,"51121",Montgomery,"37.2300","-80.4280","92573.0","44563","874",polygon,True,America/New_York,24060 24061 24062 24063 24111,"1840006446","0","0","0","0","1","1","1","0","0","0","0","0","0","0","0","0","0","0","0","0","0","0","0","0","0","0","0","0","0","0","0","0","0","0","0","0","0","0","0","0","1","0","0","0","0","0","0","0"
Portsmouth,Portsmouth,VA,Virginia,"51740",Portsmouth (city),"36.8468","-76.3540","94572","94572","1096",polygon,True,America/New_York,23703 23709 23708 23704 23707 23701 23702 23705,"1840003872","1","1","0","0","1","1","1","0","0","0","0","0","1","1","0","0","0","0","0","0","1","0","1","0","1","1","1","0","0","0","0","0","1","1","1","0","0","0","0","0","1","0","0","0","0","0","0","0"
Newport News,Newport News,VA,Virginia,"51700",Newport News (city),"37.1051","-76.5185","179388","179388","1002",polygon,True,America/New_York,23601 23608 23604 23605 23606 23607 23602 23603 23609 23612 23628 23630,"1840003862","1","1","1","0","1","1","1","0","0","0","0","0","1","1","1","1","0","0","0","0","1","0","1","0","0","0","0","0","1","1","0","0","1","1","0","0","0","0","0","0","1","0","0","0","0","0","0","0"
Salem,Salem,VA,Virginia,"51775",Salem (city),"37.2864","-80.0555","25862","25862","687",polygon,True,America/New_York,24153 24155 24157,"1840001719","0","0","0","0","0","0","0","0","0","0","0","0","1","1","1","0","0","0","0","0","0","0","0","0","0","0","0","0","0","0","0","0","1","1","1","0","0","0","0","0","1","0","0","0","0","0","0","0"
Leesburg,Leesburg,VA,Virginia,"51107",Loudoun,"39.1058","-77.5544","54215","54215","1688",polygon,True,America/New_York,20176 20175 20177 20178,"1840005872","0","0","0","0","0","0","0","0","0","0","0","0","0","0","0","0","0","0","0","0","0","0","1","0","0","0","0","0","0","0","0","0","1","1","0","0","0","0","0","0","1","1","0","0","0","0","0","0"
Pulaski,Pulaski,VA,Virginia,"51155",Pulaski,"37.0528","-80.7624","15496.0","8764","419",polygon,True,America/New_York,"24301","1840006469","0","0","0","0","0","1","0","0","0","0","0","0","0","0","0","0","0","0","0","0","0","0","0","0","0","0","0","0","0","0","0","0","0","0","0","0","0","0","0","0","0","0","0","0","0","0","0","0"
Staunton,Staunton,VA,Virginia,"51790",Staunton (city),"38.1593","-79.0611","58470.0","24528","475",polygon,True,America/New_York,24401 24402,"1840001670","0","0","0","0","0","0","0","0","0","0","0","0","0","0","0","0","0","0","0","0","0","0","1","0","0","0","0","0","0","0","0","0","0","0","0","0","0","0","0","0","1","0","0","0","0","0","0","0"
Bristol,Bristol,VA,Virginia,"51520",Bristol (city),"36.6179","-82.1607","16790","16790","502",polygon,True,America/New_York,24201 24202 24203 24205 24209 37625,"1840003879","0","0","0","0","0","0","0","0","0","0","0","0","0","0","0","0","0","0","0","0","0","0","0","0","0","0","0","0","0","0","0","0","1","1","1","1","0","0","0","0","1","0","0","0","0","0","0","0"
Hampton,Hampton,VA,Virginia,"51650",Hampton (city),"37.0551","-76.3629","134669","134669","1010",polygon,True,America/New_York,23666 23664 23665 23651 23605 23661 23669 23663 23667 23668 23670 23681,"1840003866","1","1","0","0","1","1","1","1","0","0","0","0","1","1","1","1","0","0","0","0","1","0","1","0","0","1","0","0","0","1","0","0","1","1","1","0","0","0","0","0","1","0","0","0","0","0","0","0"
Roanoke,Roanoke,VA,Virginia,"51770",Roanoke (city),"37.2785","-79.9580","216177.0","99837","906",polygon,True,America/New_York,24014 24015 24016 24017 24011 24012 24013 24001 24002 24003 24004 24005 24006 24007 24008 24009 24010 24022 24023 24024 24025 24026 24027 24028 24029 24030 24031 24032 24033 24034 24035 24036 24037 24038 24040 24042 24043,"1840003858","0","0","0","0","0","0","0","0","0","0","0","0","1","1","1","1","0","0","0","0","0","0","0","0","0","0","0","0","0","0","0","0","1","1","1","1","0","0","0","0","1","0","0","0","0","0","0","0"
Williamsburg,Williamsburg,VA,Virginia,"51830",Williamsburg (city),"37.2693","-76.7076","80855.0","15031","649",polygon,True,America/New_York,23187 23185,"1840001720","0","1","0","0","1","1","1","0","0","0","0","0","0","1","0","0","0","0","0","0","1","0","1","0","0","0","0","0","1","1","0","0","0","0","0","0","0","0","0","0","1","0","0","0","0","0","0","0"
Front Royal,Front Royal,VA,Virginia,"51187",Warren,"38.9260","-78.1838","19668.0","15239","572",polygon,True,America/New_York,"22630","1840006045","0","0","0","0","0","0","0","0","0","0","0","0","0","0","0","0","0","0","0","0","0","0","1","0","0","0","0","0","1","1","1","0","1","1","1","0","0","0","0","0","1","0","0","0","0","0","0","0"
Alexandria,Alexandria,VA,Virginia,"51510",Alexandria (city),"38.8185","-77.0861","160035","160035","4137",polygon,True,America/New_York,22302 22301 22304 22305 22311 22314 22320 22331 22332 22333 22334,"1840003837","0","0","0","0","1","1","1","0","0","0","0","0","1","1","1","1","0","0","0","0","0","0","1","0","0","0","0","0","0","0","0","0","1","1","0","0","0","0","0","0","1","1","0","0","0","0","0","0"
Norton,Norton,VA,Virginia,"51720",Norton (city),"36.9314","-82.6262","10451.0","3936","203",polygon,True,America/New_York,"24273","1840003870","0","0","0","0","0","0","0","0","0","0","0","0","0","0","0","0","0","0","0","0","0","0","0","0","0","0","0","0","0","0","0","0","1","1","1","1","0","0","0","0","0","0","0","0","0","0","0","0"
Vienna,Vienna,VA,Virginia,"51059",Fairfax,"38.8996","-77.2597","16544","16544","1450",polygon,True,America/New_York,22180 22183,"1840003829","0","0","0","0","1","1","0","0","0","0","0","0","1","1","0","0","0","0","0","0","0","0","1","0","0","0","0","0","0","0","0","0","0","1","0","0","0","0","0","0","1","1","0","0","0","0","0","0"
Lynchburg,Lynchburg,VA,Virginia,"51680",Lynchburg (city),"37.4003","-79.1908","125004.0","80995","638",polygon,True,America/New_York,24504 24502 24503 24501 24505 24506 24513 24514,"1840003855","0","0","0","0","0","0","0","0","0","0","0","0","1","1","1","1","0","0","0","0","0","0","1","0","0","0","0","0","0","0","0","0","1","1","1","0","0","0","0","0","1","0","0","0","0","0","0","0"
Poquoson,Poquoson,VA,Virginia,"51735",Poquoson (city),"37.1318","-76.3569","12053","12053","302",polygon,True,America/New_York,"23662","1840003863","1","1","0","0","1","1","1","0","0","0","0","0","1","1","1","0","0","0","0","0","1","0","1","0","0","0","0","0","1","1","0","0","1","1","0","0","0","0","0","0","1","0","0","0","0","0","0","0"
Hopewell,Hopewell,VA,Virginia,"51670",Hopewell (city),"37.2914","-77.2985","22621","22621","848",polygon,True,America/New_York,"23860","1840003859","0","1","0","0","1","1","1","0","0","0","0","0","0","0","0","0","0","0","0","0","0","0","1","0","1","1","1","0","1","1","0","0","1","1","1","1","0","0","0","0","1","0","0","0","0","0","0","0"
Christiansburg,Christiansburg,VA,Virginia,"51121",Montgomery,"37.1411","-80.4028","22259","22259","609",polygon,True,America/New_York,24073 24068,"1840006447","0","0","0","0","1","1","0","0","0","0","0","0","0","0","0","0","0","0","0","0","0","0","0","0","0","0","0","0","0","0","0","0","0","0","0","0","0","0","0","0","1","0","0","0","0","0","0","0"
Colonial Heights,Colonial Heights,VA,Virginia,"51570",Colonial Heights (city),"37.2650","-77.3969","17830","17830","915",polygon,True,America/New_York,"23834","1840003860","0","0","0","0","1","1","1","0","0","0","0","0","0","0","0","0","0","0","0","0","0","0","1","0","1","1","0","0","1","1","0","0","1","1","1","0","0","0","0","0","1","0","0","0","0","0","0","0"
Newark,Newark,DE,Delaware,"10003",New Castle,"39.6776","-75.7573","33858","33858","1422",polygon,True,America/New_York,19713 19711 19717 19716 19725 19726,"1840005578","1","1","0","0","1","1","0","0","0","0","0","0","0","0","0","0","0","0","0","0","0","0","0","0","1","1","0","0","0","1","0","0","1","1","1","1","0","0","0","0","1","1","0","0","0","0","0","0"
Milford,Milford,DE,Delaware,"10005",Sussex,"38.9091","-75.4224","20864.0","11075","438",polygon,True,America/New_York,"19963","1840006069","0","0","0","0","0","1","0","0","0","0","0","0","0","0","0","0","0","0","0","0","0","0","1","0","0","0","0","0","0","0","0","0","0","0","0","0","0","0","0","0","1","0","0","0","0","0","0","0"
Middletown,Middletown,DE,Delaware,"10003",New Castle,"39.4452","-75.7165","34132.0","21897","718",polygon,True,America/New_York,"19709","1840005581","0","0","0","0","0","1","0","0","0","0","0","0","0","0","0","0","0","0","0","0","0","0","1","0","0","0","0","0","1","1","0","0","1","1","0","0","0","0","0","0","1","1","0","0","0","0","0","0"
Millsboro,Millsboro,DE,Delaware,"10005",Sussex,"38.5866","-75.3019","10578.0","4365","453",polygon,True,America/New_York,"19966","1840006079","0","0","0","0","0","1","0","0","0","0","0","0","0","0","0","0","0","0","0","0","1","0","1","0","0","0","0","0","0","0","0","0","0","0","0","0","0","0","0","0","0","0","0","0","0","0","0","0"
Lewes,Lewes,DE,Delaware,"10005",Sussex,"38.7784","-75.1455","27087.0","3083","312",polygon,True,America/New_York,"19958","1840006068","0","0","0","0","0","1","0","0","0","0","0","0","0","0","0","0","0","0","0","0","1","0","1","0","0","0","0","0","0","0","0","0","0","0","0","0","0","0","0","0","0","0","0","0","0","0","0","1"
Georgetown,Georgetown,DE,Delaware,"10005",Sussex,"38.6899","-75.3872","10255.0","7291","547",polygon,True,America/New_York,"19947","1840006065","0","0","0","0","0","0","0","0","0","0","0","0","0","0","0","0","0","0","0","0","0","0","1","0","0","0","0","0","0","0","0","0","0","0","0","0","0","0","0","0","0","0","0","0","0","0","0","0"
Wilmington,Wilmington,DE,Delaware,"10003",New Castle,"39.7415","-75.5413","71106","71106","2517",polygon,True,America/New_York,19809 19802 19801 19806 19805 19850 19880 19884 19885 19886 19890 19893 19894 19895 19896 19898 19899,"1840005579","1","1","1","0","1","1","1","0","0","0","0","0","0","0","0","0","0","0","0","0","0","0","1","0","1","1","1","0","1","1","1","0","1","1","1","0","0","0","0","0","1","1","0","0","0","0","0","0"
Ocean View,Ocean View,DE,Delaware,"10005",Sussex,"38.5357","-75.0991","13809.0","2106","307",polygon,True,America/New_York,"19970","1840006082","0","0","0","0","1","1","1","0","0","0","0","0","0","0","0","0","0","0","0","0","1","0","1","0","0","0","0","0","0","0","0","0","0","0","0","0","0","0","0","0","0","0","0","0","0","0","0","0"
Dover,Dover,DE,Delaware,"10001",Kent,"39.1603","-75.5203","115352.0","37538","623",polygon,True,America/New_York,19902 19901 19904 19905 19906,"1840005810","0","0","0","0","1","1","1","0","1","1","1","1","1","1","1","1","0","0","0","0","0","0","1","0","0","0","0","0","0","0","0","0","0","0","0","0","0","0","0","0","1","0","0","0","0","0","0","0"
Smyrna,Smyrna,DE,Delaware,"10001",Kent,"39.2922","-75.6077","11584","11584","746",polygon,True,America/New_York,"19977","1840005820","0","0","0","0","0","1","0","0","1","1","0","0","1","1","0","0","0","0","0","0","0","0","1","0","0","0","0","0","0","1","0","0","0","0","0","0","0","0","0","0","1","0","0","0","0","0","0","0"
Washington,Washington,DC,District of Columbia,"11001",District of Columbia,"38.9047","-77.0163","5289420.0","693972","4382",polygon,True,America/New_York,20010 20011 20012 20015 20520 20307 20418 20024 20510 20593 20020 20540 20240 20245 20202 20390 20006 20005 20004 20009 20008 20204 20535 20317 20319 20405 20057 20052 20053 20017 20018 20565 20566 20560 20260 20228 20064 20551 20553 20019 20230 20373 20427 20007 20003 20002 20032 20036 20037 20506 20001 20045 20016 20013 20022 20026 20027 20029 20030 20033 20035 20038 20039 20040 20042 20043 20044 20047 20049 20050 20055 20056 20059 20060 20061 20062 20063 20065 20066 20067 20068 20071 20073 20074 20075 20076 20077 20078 20080 20081 20082 20090 20091 20201 20203 20207 20208 20210 20211 20212 20213 20214 20215 20216 20217 20218 20219 20220 20221 20222 20223 20224 20226 20227 20229 20232 20233 20235 20237 20238 20239 20241 20242 20244 20250 20251 20252 20254 20261 20262 20265 20266 20268 20270 20277 20289 20299 20301 20303 20306 20310 20314 20318 20330 20340 20350 20355 20370 20372 20374 20375 20376 20380 20388 20389 20391 20392 20393 20394 20395 20398 20401 20402 20403 20404 20407 20408 20410 20411 20412 20413 20414 20415 20416 20417 20419 20420 20421 20422 20423 20424 20425 20426 20428 20429 20431 20433 20434 20435 20436 20437 20439 20440 20441 20442 20444 20447 20451 20453 20456 20460 20463 20468 20469 20470 20472 20500 20501 20502 20503 20504 20505 20507 20508 20509 20511 20515 20521 20522 20523 20524 20525 20526 20527 20528 20529 20530 20531 20533 20534 20536 20537 20538 20539 20541 20542 20543 20544 20546 20547 20548 20549 20552 20554 20555 20557 20559 20570 20571 20572 20573 20575 20576 20577 20578 20579 20580 20581 20585 20586 20588 20590 20591 20594 20597 20598 20599 56901 56902 56904 56908 56915 56920 56933 56935 56944 56945 56950 56965 56967 56972 56998 56999,"1840006060","0","0","0","0","1","1","1","0","0","0","0","0","1","1","1","1","0","0","0","0","0","0","1","0","0","0","0","0","0","0","0","0","1","1","1","0","0","0","0","0","1","1","0","0","0","0","0","0"
Kaukauna,Kaukauna,WI,Wisconsin,"55087",Outagamie,"44.2776","-88.2644","16086","16086","812",polygon,True,America/Chicago,"54130","1840002403","0","0","0","0","0","0","0","0","0","0","0","0","1","1","0","0","0","0","0","0","0","0","0","0","0","0","0","0","0","0","0","0","1","1","0","0","0","0","0","0","1","1","0","0","0","0","0","0"
Oconomowoc,Oconomowoc,WI,Wisconsin,"55133",Waukesha,"43.0994","-88.4951","16717","16717","556",polygon,True,America/Chicago,"53066","1840003027","0","0","0","0","0","0","0","0","0","0","0","0","0","0","0","0","0","0","0","0","0","0","0","0","0","0","0","0","0","0","0","0","0","0","0","0","0","0","0","0","1","1","1","0","0","0","0","0"
Verona,Verona,WI,Wisconsin,"55025",Dane,"42.9886","-89.5378","13107","13107","725",polygon,True,America/Chicago,"53593","1840002903","0","1","0","0","0","1","0","0","1","1","0","0","1","1","0","0","0","0","0","0","0","0","0","0","0","0","0","0","0","0","0","0","0","1","0","0","0","0","0","0","1","1","1","0","0","0","0","0"
Platteville,Platteville,WI,Wisconsin,"55043",Grant,"42.7279","-90.4676","12470.0","12457","757",polygon,True,America/Chicago,"53818","1840002981","0","0","0","0","0","0","0","0","0","0","0","0","0","0","0","0","0","0","0","0","0","0","0","0","0","0","0","0","0","0","0","0","0","0","0","0","0","0","0","0","1","1","1","0","0","0","0","0"
Howard,Howard,WI,Wisconsin,"55009",Brown,"44.5703","-88.0923","19634","19634","409",polygon,True,America/Chicago,54313 54303,"1840002345","0","0","0","0","0","0","0","0","0","0","0","0","1","1","0","0","0","0","0","0","0","0","0","0","1","1","1","0","0","0","0","0","1","1","1","0","0","0","0","0","1","0","0","0","0","0","0","0"
Burlington,Burlington,WI,Wisconsin,"55101",Racine,"42.6750","-88.2724","24687.0","10978","555",polygon,True,America/Chicago,"53105","1840002491","0","0","0","0","0","0","0","0","0","0","0","0","0","0","0","0","0","0","0","0","0","0","0","0","0","0","0","0","0","0","0","0","0","0","0","0","0","0","0","0","1","1","0","0","0","0","0","0"
Chippewa Falls,Chippewa Falls,WI,Wisconsin,"55017",Chippewa,"44.9358","-91.3902","14035","14035","478",polygon,True,America/Chicago,54729 54774,"1840002108","0","0","0","0","0","0","0","0","0","0","0","0","1","1","0","0","0","0","0","0","0","0","0","0","0","0","0","0","0","0","0","0","1","1","1","1","0","0","0","0","1","1","0","0","0","0","0","0"
Lake Geneva,Lake Geneva,WI,Wisconsin,"55127",Walworth,"42.5825","-88.4282","15078.0","7875","443",polygon,True,America/Chicago,"53147","1840002479","0","0","0","0","0","0","0","0","0","0","0","0","0","0","0","0","0","0","0","0","0","0","0","0","0","0","0","0","0","0","0","0","0","0","0","0","0","0","0","0","1","1","0","0","0","0","0","0"
Fitchburg,Fitchburg,WI,Wisconsin,"55025",Dane,"42.9859","-89.4255","29485","29485","325",polygon,True,America/Chicago,53575 53719 53711 53713 53744,"1840002905","0","1","0","0","1","1","0","0","1","1","0","0","1","1","0","0","0","0","0","0","0","0","0","0","0","0","0","0","0","0","0","0","1","1","0","0","0","0","0","0","1","1","1","0","0","0","0","0"
Beaver Dam,Beaver Dam,WI,Wisconsin,"55027",Dodge,"43.4688","-88.8311","18003.0","16369","881",polygon,True,America/Chicago,"53916","1840002738","0","0","0","0","0","0","0","0","0","0","0","0","0","0","0","0","0","0","0","0","0","0","0","0","0","0","0","0","0","0","0","0","1","1","0","0","0","0","0","0","1","1","1","0","0","0","0","0"
Little Chute,Little Chute,WI,Wisconsin,"55087",Outagamie,"44.2889","-88.3183","11403","11403","802",polygon,True,America/Chicago,54140 54130 54913 54911,"1840002408","0","0","0","0","0","0","0","0","0","0","0","0","1","1","1","0","0","0","0","0","0","0","0","0","0","0","0","0","0","0","0","0","1","1","0","0","0","0","0","0","1","1","0","0","0","0","0","0"
Mount Pleasant,Mount Pleasant,WI,Wisconsin,"55101",Racine,"42.7129","-87.8873","26525","26525","304",polygon,True,America/Chicago,53405 53406 53403 53177,"1840038102","0","0","0","0","0","1","0","0","0","0","0","0","1","1","1","0","0","0","0","0","0","0","0","0","0","0","0","0","1","1","0","0","1","1","0","0","0","0","0","0","1","1","0","0","0","0","0","0"
Shorewood,Shorewood,WI,Wisconsin,"55079",Milwaukee,"43.0914","-87.8864","13338","13338","3239",polygon,True,America/Chicago,"53211","1840003031","0","0","0","0","1","1","0","0","0","0","0","0","1","1","1","0","0","0","0","0","0","0","0","0","1","1","0","0","0","0","0","0","1","1","1","0","0","0","0","0","1","0","0","0","0","0","0","0"
Fox Crossing,Fox Crossing,WI,Wisconsin,"55139",Winnebago,"44.2226","-88.4894","10980","10980","433",polygon,True,America/Chicago,"54956","1840038105","0","0","0","0","0","0","0","0","0","0","0","0","1","1","0","0","0","0","0","0","0","0","0","0","0","0","0","0","0","0","0","0","1","1","1","0","0","0","0","0","1","1","0","0","0","0","0","0"
Beloit,Beloit,WI,Wisconsin,"55105",Rock,"42.5230","-89.0184","63498.0","36773","819",polygon,True,America/Chicago,53511 53512,"1840002471","0","0","0","0","0","0","0","0","0","0","0","0","0","0","0","0","0","0","0","0","0","0","0","0","0","0","0","0","0","0","0","0","1","1","1","0","0","0","0","0","1","1","0","0","0","0","0","0"
Greenfield,Greenfield,WI,Wisconsin,"55079",Milwaukee,"42.9619","-88.0051","36827","36827","1233",polygon,True,America/Chicago,53221 53220 53228,"1840003039","0","0","0","0","1","1","0","0","0","0","0","0","1","1","0","0","0","0","0","0","0","0","0","0","1","1","0","0","0","1","0","0","1","1","1","0","0","0","0","0","1","1","0","0","0","0","0","0"
Greendale,Greendale,WI,Wisconsin,"55079",Milwaukee,"42.9371","-88.0018","14159","14159","982",polygon,True,America/Chicago,"53129","1840003038","0","0","0","0","1","1","0","0","0","0","0","0","1","1","0","0","0","0","0","0","0","0","0","0","1","1","0","0","1","1","0","0","1","1","1","0","0","0","0","0","1","1","0","0","0","0","0","0"
Suamico,Suamico,WI,Wisconsin,"55009",Brown,"44.6352","-88.0664","12816","12816","136",polygon,True,America/Chicago,54173 54313,"1840000309","0","0","0","0","0","0","0","0","0","0","0","0","1","1","0","0","0","0","0","0","0","0","0","0","1","1","0","0","0","0","0","0","1","1","0","0","0","0","0","0","1","0","0","0","0","0","0","0"
Fond du Lac,Fond du Lac,WI,Wisconsin,"55039",Fond du Lac,"43.7720","-88.4396","54629.0","42809","872",polygon,True,America/Chicago,54937 54935 54936,"1840002603","0","0","0","0","0","0","0","0","0","0","0","0","0","0","0","0","0","0","0","0","0","0","0","0","0","0","0","0","0","0","0","0","1","1","1","0","0","0","0","0","1","1","1","0","0","0","0","0"
Hartford,Hartford,WI,Wisconsin,"55131",Washington,"43.3218","-88.3781","15064","15064","720",polygon,True,America/Chicago,"53027","1840002831","0","0","0","0","0","0","0","0","0","0","0","0","0","0","0","0","0","0","0","0","0","0","0","0","0","0","0","0","0","0","0","0","0","0","0","0","0","0","0","0","1","1","1","0","0","0","0","0"
Elkhorn,Elkhorn,WI,Wisconsin,"55127",Walworth,"42.6711","-88.5377","12322.0","9953","478",polygon,True,America/Chicago,"53121","1840002480","0","0","0","0","0","0","0","0","0","0","0","0","0","0","0","0","0","0","0","0","0","0","0","0","0","0","0","0","0","0","0","0","0","0","0","0","0","0","0","0","1","1","1","0","0","0","0","0"
Baraboo,Baraboo,WI,Wisconsin,"55111",Sauk,"43.4696","-89.7378","13891.0","12164","634",polygon,True,America/Chicago,"53913","1840002720","0","0","0","0","1","1","0","0","0","0","0","0","0","0","0","0","0","0","0","0","0","0","0","0","0","0","0","0","0","0","0","0","0","1","0","0","0","0","0","0","1","1","1","0","0","0","0","0"
Plover,Plover,WI,Wisconsin,"55097",Portage,"44.4614","-89.5383","12772","12772","465",polygon,True,America/Chicago,54467 54492,"1840002328","0","0","0","0","0","0","0","0","0","0","0","0","0","0","0","0","0","0","0","0","0","0","0","0","0","0","0","0","0","0","0","0","1","1","1","0","0","0","0","0","1","1","0","0","0","0","0","0"
Janesville,Janesville,WI,Wisconsin,"55105",Rock,"42.6855","-89.0136","70518.0","64359","735",polygon,True,America/Chicago,53545 53546 53548 53547,"1840002467","0","0","0","0","0","0","0","0","0","0","0","0","0","0","0","0","0","0","0","0","0","0","0","0","0","0","0","0","0","0","0","0","1","1","1","0","0","0","0","0","1","1","1","0","0","0","0","0"
Marinette,Marinette,WI,Wisconsin,"55075",Marinette,"45.0873","-87.6324","18791.0","10607","597",polygon,True,America/Chicago,"54143","1840003930","0","0","0","0","0","0","0","0","0","0","0","0","0","0","0","0","0","0","0","0","0","0","0","0","0","0","0","0","0","0","0","0","0","0","0","0","0","0","0","0","1","0","0","0","0","0","0","0"
Pleasant Prairie,Pleasant Prairie,WI,Wisconsin,"55059",Kenosha,"42.5265","-87.8895","20762","20762","240",polygon,True,America/Chicago,53142 53158,"1840003163","0","0","0","0","0","1","0","0","0","0","0","0","1","1","1","0","0","0","0","0","0","0","0","0","0","0","0","0","1","1","1","0","1","1","1","0","0","0","0","0","1","1","0","0","0","0","0","0"
Muskego,Muskego,WI,Wisconsin,"55133",Waukesha,"42.8860","-88.1291","24996","24996","305",polygon,True,America/Chicago,"53150","1840003023","0","0","0","0","0","1","0","0","0","0","0","0","0","1","0","0","0","0","0","0","0","0","0","0","0","1","0","0","0","1","0","0","0","1","0","0","0","0","0","0","1","1","0","0","0","0","0","0"
Manitowoc,Manitowoc,WI,Wisconsin,"55071",Manitowoc,"44.0991","-87.6811","44932.0","32697","710",polygon,True,America/Chicago,"54220","1840002213","0","0","0","0","0","0","0","0","0","0","0","0","0","0","0","0","0","0","0","0","0","0","0","0","0","0","0","0","0","1","0","0","1","1","1","0","0","0","0","0","1","0","0","0","0","0","0","0"
Kenosha,Kenosha,WI,Wisconsin,"55059",Kenosha,"42.5863","-87.8759","124888.0","99877","1390",polygon,True,America/Chicago,53144 53140 53142 53143 53141,"1840003160","0","0","0","0","0","1","0","0","0","0","0","0","1","1","1","1","0","0","0","0","0","0","0","0","0","0","0","0","1","1","1","0","1","1","1","0","0","0","0","0","1","1","0","0","0","0","0","0"
Sussex,Sussex,WI,Wisconsin,"55133",Waukesha,"43.1339","-88.2232","10819","10819","539",polygon,True,America/Chicago,"53089","1840003006","0","0","0","0","0","0","0","0","0","0","0","0","0","1","0","0","0","0","0","0","0","0","0","0","0","0","0","0","0","0","0","0","1","1","0","0","0","0","0","0","1","1","0","0","0","0","0","0"
Mukwonago,Mukwonago,WI,Wisconsin,"55133",Waukesha,"42.8566","-88.3270","21882.0","7947","378",polygon,True,America/Chicago,53149 53120,"1840003022","0","0","0","0","0","0","0","0","0","0","0","0","0","0","0","0","0","0","0","0","0","0","0","0","0","0","0","0","0","0","0","0","0","0","0","0","0","0","0","0","1","1","0","0","0","0","0","0"
Watertown,Watertown,WI,Wisconsin,"55055",Jefferson,"43.1893","-88.7285","23145.0","23655","758",polygon,True,America/Chicago,53098 53094,"1840003000","0","0","0","0","0","0","0","0","0","0","0","0","0","0","0","0","0","0","0","0","0","0","0","0","0","0","0","0","0","0","0","0","0","0","0","0","0","0","0","0","1","1","1","0","0","0","0","0"
Onalaska,Onalaska,WI,Wisconsin,"55063",La Crosse,"43.8880","-91.2074","18712","18712","705",polygon,True,America/Chicago,"54650","1840002579","0","0","0","0","0","0","0","0","0","0","0","0","1","1","1","0","0","0","0","0","0","0","0","0","0","0","0","0","0","0","0","0","1","1","1","0","0","0","0","0","1","0","0","0","0","0","0","0"
Middleton,Middleton,WI,Wisconsin,"55025",Dane,"43.1064","-89.5059","19660","19660","849",polygon,True,America/Chicago,"53562","1840002919","1","1","0","0","1","1","0","0","1","1","0","0","1","1","0","0","0","0","0","0","0","0","0","0","0","0","0","0","0","0","0","0","1","1","0","0","0","0","0","0","1","1","1","0","0","0","0","0"
Delavan,Delavan,WI,Wisconsin,"55127",Walworth,"42.6281","-88.6324","12003.0","8356","463",polygon,True,America/Chicago,"53115","1840002483","0","0","0","0","0","0","0","0","0","0","0","0","0","0","0","0","0","0","0","0","0","0","0","0","0","0","0","0","0","0","0","0","0","0","0","0","0","0","0","0","1","1","0","0","0","0","0","0"
Sparta,Sparta,WI,Wisconsin,"55081",Monroe,"43.9376","-90.8130","10054.0","9664","472",polygon,True,America/Chicago,"54656","1840002565","0","0","0","0","0","0","0","0","0","0","0","0","0","0","0","0","0","0","0","0","0","0","0","0","0","0","0","0","0","0","0","0","0","0","0","0","0","0","0","0","1","1","0","0","0","0","0","0"
De Forest,De Forest,WI,Wisconsin,"55025",Dane,"43.2320","-89.3424","10340","10340","532",polygon,True,America/Chicago,53598 53532,"1840037935","1","1","0","0","1","1","0","0","1","1","0","0","1","1","0","0","0","0","0","0","0","0","0","0","0","0","0","0","0","0","0","0","1","1","0","0","0","0","0","0","1","1","1","0","0","0","0","0"
La Crosse,La Crosse,WI,Wisconsin,"55063",La Crosse,"43.8241","-91.2268","101886.0","51834","920",polygon,True,America/Chicago,54601 54603 54602,"1840002577","0","0","0","0","0","0","0","0","0","0","0","0","1","1","1","1","0","0","0","0","0","0","0","0","0","0","0","0","0","0","0","0","1","1","1","0","0","0","0","0","1","0","0","0","0","0","0","0"
Whitewater,Whitewater,WI,Wisconsin,"55127",Walworth,"42.8372","-88.7341","14374.0","14540","636",polygon,True,America/Chicago,"53190","1840002476","0","0","0","0","0","0","0","0","0","0","0","0","0","0","0","0","0","0","0","0","0","0","0","0","0","0","0","0","0","0","0","0","0","0","0","0","0","0","0","0","1","1","1","0","0","0","0","0"
Stevens Point,Stevens Point,WI,Wisconsin,"55097",Portage,"44.5241","-89.5508","43520.0","26293","591",polygon,True,America/Chicago,54481 54482,"1840002320","0","0","0","0","0","0","0","0","0","0","0","0","0","0","0","0","0","0","0","0","0","0","0","0","0","0","0","0","0","0","0","0","1","1","1","1","0","0","0","0","1","1","0","0","0","0","0","0"
Sun Prairie,Sun Prairie,WI,Wisconsin,"55025",Dane,"43.1829","-89.2353","32894","32894","1056",polygon,True,America/Chicago,53590 53596,"1840002902","1","1","0","0","1","1","0","0","1","1","0","0","1","1","0","0","0","0","0","0","0","0","0","0","0","0","0","0","0","0","0","0","1","1","0","0","0","0","0","0","1","1","1","0","0","0","0","0"
Oshkosh,Oshkosh,WI,Wisconsin,"55139",Winnebago,"44.0228","-88.5616","75154.0","66665","962",polygon,True,America/Chicago,54985 54904 54901 54902 54903 54906,"1840002246","0","0","0","0","0","0","0","0","0","0","0","0","0","0","0","0","0","0","0","0","0","0","0","0","0","0","0","0","0","0","0","0","0","1","0","0","0","0","0","0","1","1","1","0","0","0","0","0"
Marshfield,Marshfield,WI,Wisconsin,"55141",Wood,"44.6627","-90.1728","18697.0","18405","520",polygon,True,America/Chicago,54449 54404 54472,"1840002336","0","0","0","0","0","0","0","0","0","0","0","0","0","0","0","0","0","0","0","0","0","0","0","0","0","0","0","0","0","0","0","0","0","0","0","0","0","0","0","0","1","1","0","0","0","0","0","0"
Grafton,Grafton,WI,Wisconsin,"55089",Ozaukee,"43.3204","-87.9480","11643","11643","883",polygon,True,America/Chicago,"53024","1840002823","0","0","0","0","0","0","0","0","0","0","0","0","0","0","0","0","0","0","0","0","0","0","0","0","0","0","0","0","1","1","0","0","0","1","0","0","0","0","0","0","1","1","0","0","0","0","0","0"
Cudahy,Cudahy,WI,Wisconsin,"55079",Milwaukee,"42.9467","-87.8639","18282","18282","1479",polygon,True,America/Chicago,"53110","1840003045","0","0","0","0","1","1","1","0","0","0","0","0","1","1","0","0","0","0","0","0","0","0","0","0","1","1","1","0","1","1","0","0","1","1","1","1","0","0","0","0","1","0","0","0","0","0","0","0"
Sheboygan,Sheboygan,WI,Wisconsin,"55117",Sheboygan,"43.7447","-87.7322","69920.0","48329","1286",polygon,True,America/Chicago,53083 53081,"1840002628","0","0","0","0","0","0","0","0","0","0","0","0","0","0","0","0","0","0","0","0","0","0","0","0","0","0","0","0","0","0","0","0","1","1","1","0","0","0","0","0","1","0","0","0","0","0","0","0"
Caledonia,Caledonia,WI,Wisconsin,"55101",Racine,"42.7987","-87.8762","25002","25002","212",polygon,True,America/Chicago,53405 53404 53406 53402 53126 53108,"1840010091","0","0","0","0","1","1","0","0","0","0","0","0","1","1","0","0","0","0","0","0","0","0","0","0","0","1","0","0","1","1","1","0","1","1","0","0","0","0","0","0","1","1","0","0","0","0","0","0"
Menomonee Falls,Menomonee Falls,WI,Wisconsin,"55133",Waukesha,"43.1487","-88.1227","37443","37443","439",polygon,True,America/Chicago,53051 53052,"1840003020","0","0","0","0","0","0","0","0","0","0","0","0","1","1","0","0","0","0","0","0","0","0","0","0","0","0","0","0","0","0","0","0","1","1","1","0","0","0","0","0","1","1","0","0","0","0","0","0"
Weston,Weston,WI,Wisconsin,"55073",Marathon,"44.8906","-89.5487","15167","15167","270",polygon,True,America/Chicago,"54476","1840038093","0","0","0","0","0","0","0","0","0","0","0","0","0","0","0","0","0","0","0","0","0","0","0","0","0","0","0","0","0","0","0","0","1","1","1","0","0","0","0","0","1","1","0","0","0","0","0","0"
Germantown,Germantown,WI,Wisconsin,"55131",Washington,"43.2343","-88.1217","19982","19982","224",polygon,True,America/Chicago,53076 53022,"1840002830","0","0","0","0","0","0","0","0","0","0","0","0","0","1","0","0","0","0","0","0","0","0","0","0","0","0","0","0","0","0","0","0","1","1","0","0","0","0","0","0","1","1","0","0","0","0","0","0"
Menominee,Menominee,WI,Wisconsin,"55033",Dunn,"44.8893","-91.9085","18025.0","16429","463",polygon,True,America/Chicago,"54751","1840037988","0","0","0","0","0","0","0","0","0","0","0","0","0","0","0","0","0","0","0","0","0","0","0","0","0","0","0","0","0","0","0","0","0","0","0","0","0","0","0","0","1","1","0","0","0","0","0","0"
Port Washington,Port Washington,WI,Wisconsin,"55089",Ozaukee,"43.3847","-87.8852","11762","11762","779",polygon,True,America/Chicago,53074 53024,"1840002826","0","0","0","0","0","0","0","0","0","0","0","0","0","0","0","0","0","0","0","0","0","0","0","0","0","0","0","0","1","1","1","1","0","0","0","0","0","0","0","0","1","0","0","0","0","0","0","0"
South Milwaukee,South Milwaukee,WI,Wisconsin,"55079",Milwaukee,"42.9119","-87.8624","20988","20988","1678",polygon,True,America/Chicago,"53172","1840003032","0","0","0","0","1","1","1","0","0","0","0","0","0","1","0","0","0","0","0","0","0","0","0","0","1","1","0","0","1","1","1","0","1","1","1","0","0","0","0","0","1","0","0","0","0","0","0","0"
Appleton,Appleton,WI,Wisconsin,"55087",Outagamie,"44.2774","-88.3894","222222.0","74653","1178",polygon,True,America/Chicago,54914 54915 54913 54911 54912 54919,"1840002400","0","0","0","0","0","0","0","0","0","0","0","0","1","1","1","1","0","0","0","0","0","0","0","0","0","0","0","0","0","0","0","0","1","1","1","0","0","0","0","0","1","1","0","0","0","0","0","0"
Oregon,Oregon,WI,Wisconsin,"55025",Dane,"42.9252","-89.3887","12448.0","10390","923",polygon,True,America/Chicago,"53575","1840002922","0","1","0","0","0","1","0","0","1","1","0","0","1","1","0","0","0","0","0","0","0","0","0","0","0","0","0","0","0","0","0","0","0","1","0","0","0","0","0","0","1","1","1","0","0","0","0","0"
Brookfield,Brookfield,WI,Wisconsin,"55133",Waukesha,"43.0640","-88.1232","38045","38045","538",polygon,True,America/Chicago,53005 53045 53008,"1840003012","0","0","0","0","0","1","0","0","0","0","0","0","1","1","0","0","0","0","0","0","0","0","0","0","0","1","0","0","0","0","0","0","1","1","1","0","0","0","0","0","1","1","0","0","0","0","0","0"
De Pere,De Pere,WI,Wisconsin,"55009",Brown,"44.4313","-88.0793","25034","25034","831",polygon,True,America/Chicago,54115 54344,"1840002348","0","0","0","0","0","0","0","0","0","0","0","0","1","1","0","0","0","0","0","0","0","0","0","0","1","1","0","0","0","0","0","0","1","1","0","0","0","0","0","0","1","0","0","0","0","0","0","0"
Stoughton,Stoughton,WI,Wisconsin,"55025",Dane,"42.9237","-89.2219","13088","13088","883",polygon,True,America/Chicago,"53589","1840002901","0","0","0","0","0","1","0","0","0","1","0","0","0","1","0","0","0","0","0","0","0","0","0","0","0","0","0","0","0","0","0","0","0","1","0","0","0","0","0","0","1","1","1","0","0","0","0","0"
West Allis,West Allis,WI,Wisconsin,"55079",Milwaukee,"43.0068","-88.0296","59934","59934","2032",polygon,True,America/Chicago,53219 53214 53227,"1840003034","0","0","0","0","1","1","0","0","0","0","0","0","1","1","1","0","0","0","0","0","0","0","0","0","1","1","0","0","0","1","0","0","1","1","1","0","0","0","0","0","1","1","0","0","0","0","0","0"
Allouez,Allouez,WI,Wisconsin,"55009",Brown,"44.4721","-88.0261","13886","13886","1174",polygon,True,America/Chicago,54301 54307 54324,"1840002346","0","0","0","0","0","0","0","0","0","0","0","0","1","1","1","0","0","0","0","0","0","0","0","0","1","1","1","0","0","0","0","0","1","1","1","0","0","0","0","0","1","0","0","0","0","0","0","0"
West Bend,West Bend,WI,Wisconsin,"55131",Washington,"43.4184","-88.1822","69577.0","31596","809",polygon,True,America/Chicago,53090 53095,"1840002829","0","0","0","0","0","0","0","0","0","0","0","0","0","0","0","0","0","0","0","0","0","0","0","0","0","0","0","0","0","0","0","0","0","0","0","0","0","0","0","0","1","1","0","0","0","0","0","0"
Waukesha,Waukesha,WI,Wisconsin,"55133",Waukesha,"43.0087","-88.2464","72489","72489","1097",polygon,True,America/Chicago,53186 53188 53189 53187,"1840003008","0","0","0","0","0","0","0","0","0","0","0","0","0","1","0","0","0","0","0","0","0","0","0","0","0","0","0","0","0","0","0","0","1","1","0","0","0","0","0","0","1","1","0","0","0","0","0","0"
Glendale,Glendale,WI,Wisconsin,"55079",Milwaukee,"43.1288","-87.9277","12728","12728","852",polygon,True,America/Chicago,53209 53217 53212,"1840003037","0","0","0","0","0","1","0","0","0","0","0","0","1","1","1","0","0","0","0","0","0","0","0","0","1","1","0","0","0","0","0","0","1","1","1","0","0","0","0","0","1","1","0","0","0","0","0","0"
Monroe,Monroe,WI,Wisconsin,"55045",Green,"42.6026","-89.6374","10658.0","10604","758",polygon,True,America/Chicago,"53566","1840002464","0","0","0","0","0","0","0","0","0","0","0","0","0","0","0","0","0","0","0","0","0","0","0","0","0","0","0","0","0","0","0","0","0","0","0","0","0","0","0","0","1","1","0","0","0","0","0","0"
Two Rivers,Two Rivers,WI,Wisconsin,"55071",Manitowoc,"44.1564","-87.5824","11153","11153","712",polygon,True,America/Chicago,"54241","1840002206","0","0","0","0","0","0","0","0","0","0","0","0","0","0","0","0","0","0","0","0","0","0","0","0","0","0","0","0","1","1","0","0","1","1","0","0","0","0","0","0","1","0","0","0","0","0","0","0"
Wisconsin Rapids,Wisconsin Rapids,WI,Wisconsin,"55141",Wood,"44.3928","-89.8265","28277.0","17806","496",polygon,True,America/Chicago,54495 54494,"1840002333","0","0","0","0","0","0","0","0","0","0","0","0","0","0","0","0","0","0","0","0","0","0","0","0","0","0","0","0","0","0","0","0","1","1","1","1","0","0","0","0","1","1","0","0","0","0","0","0"
Milwaukee,Milwaukee,WI,Wisconsin,"55079",Milwaukee,"43.0640","-87.9669","1377808.0","595351","2390",polygon,True,America/Chicago,53203 53202 53207 53206 53205 53204 53209 53208 53233 53211 53218 53219 53214 53215 53216 53210 53212 53213 53295 53225 53224 53227 53226 53221 53220 53223 53222 53228 53201 53237 53259 53263 53274 53278 53288 53290 53293,"1840003046","0","0","0","0","1","1","0","0","0","0","0","0","1","1","1","1","0","0","0","0","0","0","0","0","1","1","0","0","0","0","0","0","1","1","1","0","0","0","0","0","1","1","0","0","0","0","0","0"
Bellevue,Bellevue,WI,Wisconsin,"55009",Brown,"44.4593","-87.9554","15687","15687","422",polygon,True,America/Chicago,54311 54115,"1840000308","0","0","0","0","0","0","0","0","0","0","0","0","1","1","1","0","0","0","0","0","0","0","0","0","1","1","1","0","0","0","0","0","1","1","1","0","0","0","0","0","1","0","0","0","0","0","0","0"
Mequon,Mequon,WI,Wisconsin,"55089",Ozaukee,"43.2352","-87.9838","24159","24159","201",polygon,True,America/Chicago,53097 53092,"1840037989","0","0","0","0","0","0","0","0","0","0","0","0","0","1","0","0","0","0","0","0","0","0","0","0","0","0","0","0","0","1","0","0","1","1","0","0","0","0","0","0","1","1","0","0","0","0","0","0"
Fort Atkinson,Fort Atkinson,WI,Wisconsin,"55055",Jefferson,"42.9253","-88.8441","21299.0","12482","851",polygon,True,America/Chicago,"53538","1840003004","0","0","0","0","0","0","0","0","0","0","0","0","0","0","0","0","0","0","0","0","0","0","0","0","0","0","0","0","0","0","0","0","0","0","0","0","0","0","0","0","1","1","1","0","0","0","0","0"
Menasha,Menasha,WI,Wisconsin,"55139",Winnebago,"44.2125","-88.4271","17748","17748","1131",polygon,True,America/Chicago,"54952","1840002243","0","0","0","0","0","0","0","0","0","0","0","0","1","1","1","0","0","0","0","0","0","0","0","0","0","0","0","0","0","0","0","0","1","1","1","0","0","0","0","0","1","1","0","0","0","0","0","0"
Whitefish Bay,Whitefish Bay,WI,Wisconsin,"55079",Milwaukee,"43.1132","-87.9004","13950","13950","2546",polygon,True,America/Chicago,53211 53217,"1840003036","0","0","0","0","0","1","0","0","0","0","0","0","1","1","1","0","0","0","0","0","0","0","0","0","1","1","0","0","0","0","0","0","1","1","1","0","0","0","0","0","1","1","0","0","0","0","0","0"
Waunakee,Waunakee,WI,Wisconsin,"55025",Dane,"43.1833","-89.4433","13755","13755","785",polygon,True,America/Chicago,"53597","1840002904","1","1","0","0","1","1","0","0","1","1","0","0","1","1","0","0","0","0","0","0","0","0","0","0","0","0","0","0","0","0","0","0","1","1","0","0","0","0","0","0","1","1","1","0","0","0","0","0"
Madison,Madison,WI,Wisconsin,"55025",Dane,"43.0808","-89.3922","439553.0","255214","1279",polygon,True,America/Chicago,53706 53704 53705 53703 53714 53726 53792 53719 53718 53715 53717 53716 53711 53713 53701 53707 53708 53725 53774 53777 53782 53783 53784 53785 53786 53788 53789 53790 53793 53794,"1840002915","1","1","1","0","1","1","1","0","1","1","1","1","1","1","1","1","0","0","0","0","0","0","0","0","0","0","0","0","0","0","0","0","1","1","1","0","0","0","0","0","1","1","1","0","0","0","0","0"
Oak Creek,Oak Creek,WI,Wisconsin,"55079",Milwaukee,"42.8803","-87.9008","36354","36354","493",polygon,True,America/Chicago,"53154","1840003047","0","0","0","0","1","1","1","0","0","0","0","0","0","1","0","0","0","0","0","0","0","0","0","0","1","1","0","0","1","1","1","0","1","1","1","0","0","0","0","0","1","1","0","0","0","0","0","0"
Wausau,Wausau,WI,Wisconsin,"55073",Marathon,"44.9615","-89.6436","73933.0","38739","791",polygon,True,America/Chicago,54401 54403,"1840002163","0","0","0","0","0","0","0","0","0","0","0","0","0","0","0","0","0","0","0","0","0","0","0","0","0","0","0","0","0","0","0","0","1","1","1","1","0","0","0","0","1","1","0","0","0","0","0","0"
Shawano,Shawano,WI,Wisconsin,"55115",Shawano,"44.7749","-88.5844","10158.0","8980","522",polygon,True,America/Chicago,"54166","1840002266","0","0","0","0","0","0","0","0","0","0","0","0","0","0","0","0","0","0","0","0","0","0","0","0","0","0","0","0","0","0","0","0","0","0","0","0","0","0","0","0","1","0","0","0","0","0","0","0"
Ashwaubenon,Ashwaubenon,WI,Wisconsin,"55009",Brown,"44.4795","-88.0889","17271","17271","539",polygon,True,America/Chicago,54313 54304 54115,"1840002342","0","0","0","0","0","0","0","0","0","0","0","0","1","1","0","0","0","0","0","0","0","0","0","0","1","1","1","0","0","0","0","0","1","1","1","0","0","0","0","0","1","0","0","0","0","0","0","0"
Brown Deer,Brown Deer,WI,Wisconsin,"55079",Milwaukee,"43.1743","-87.9750","11964","11964","1050",polygon,True,America/Chicago,53209 53223,"1840003041","0","0","0","0","0","1","0","0","0","0","0","0","1","1","0","0","0","0","0","0","0","0","0","0","0","1","0","0","0","0","0","0","1","1","1","0","0","0","0","0","1","1","0","0","0","0","0","0"
Racine,Racine,WI,Wisconsin,"55101",Racine,"42.7274","-87.8135","131467.0","77542","1936",polygon,True,America/Chicago,53405 53404 53406 53403 53402 53401 53407 53408,"1840002493","0","0","0","0","0","1","0","0","0","0","0","0","1","1","1","1","0","0","0","0","0","0","0","0","0","0","0","0","1","1","0","0","1","1","0","0","0","0","0","0","1","0","0","0","0","0","0","0"
Richfield,Richfield,WI,Wisconsin,"55131",Washington,"43.2372","-88.2413","11696","11696","125",polygon,True,America/Chicago,53076 53033 53017,"1840002835","0","0","0","0","0","0","0","0","0","0","0","0","0","0","0","0","0","0","0","0","0","0","0","0","0","0","0","0","0","0","0","0","0","1","0","0","0","0","0","0","1","1","0","0","0","0","0","0"
Waupun,Waupun,WI,Wisconsin,"55039",Fond du Lac,"43.6314","-88.7379","11302.0","11269","940",polygon,True,America/Chicago,"53963","1840002600","0","0","0","0","0","0","0","0","0","0","0","0","0","0","0","0","0","0","0","0","0","0","0","0","0","0","0","0","0","0","0","0","0","1","0","0","0","0","0","0","1","1","1","0","0","0","0","0"
Superior,Superior,WI,Wisconsin,"55031",Douglas,"46.6941","-92.0823","26194","26194","275",polygon,True,America/Chicago,"54880","1840038034","0","1","0","0","1","1","0","0","0","0","0","0","1","1","0","0","0","0","0","0","0","0","0","0","1","1","0","0","0","0","0","0","1","1","1","1","0","0","0","0","0","0","0","0","0","0","0","0"
Green Bay,Green Bay,WI,Wisconsin,"55009",Brown,"44.5150","-87.9896","208625.0","105116","892",polygon,True,America/Chicago,54311 54304 54302 54301 54303 54305 54306 54308,"1840002344","0","0","0","0","0","0","0","0","0","0","0","0","1","1","1","1","0","0","0","0","0","0","0","0","1","1","1","0","0","0","0","0","1","1","1","0","0","0","0","0","1","0","0","0","0","0","0","0"
Franklin,Franklin,WI,Wisconsin,"55079",Milwaukee,"42.8854","-88.0104","36143","36143","403",polygon,True,America/Chicago,"53132","1840003043","0","0","0","0","1","1","0","0","0","0","0","0","0","1","0","0","0","0","0","0","0","0","0","0","1","1","0","0","1","1","0","0","1","1","0","0","0","0","0","0","1","1","0","0","0","0","0","0"
Portage,Portage,WI,Wisconsin,"55021",Columbia,"43.5490","-89.4659","10540.0","10473","455",polygon,True,America/Chicago,"53901","1840002712","0","0","0","0","0","0","0","0","0","0","0","0","0","0","0","0","0","0","0","0","0","0","0","0","0","0","0","0","1","1","1","0","1","1","1","1","0","0","0","0","1","1","1","0","0","0","0","0"
Hudson,Hudson,WI,Wisconsin,"55109",St. Croix,"44.9640","-92.7319","24133.0","13706","813",polygon,True,America/Chicago,"54016","1840002135","0","0","0","0","0","0","0","0","0","0","0","0","0","0","0","0","0","0","0","0","0","0","0","0","0","0","0","0","0","0","0","0","0","1","0","0","0","0","0","0","1","1","0","0","0","0","0","0"
Wauwatosa,Wauwatosa,WI,Wisconsin,"55079",Milwaukee,"43.0615","-88.0347","48277","48277","1408",polygon,True,America/Chicago,53213 53225 53226 53222,"1840003033","0","0","0","0","1","1","0","0","0","0","0","0","1","1","1","0","0","0","0","0","0","0","0","0","1","1","0","0","0","0","0","0","1","1","1","0","0","0","0","0","1","1","0","0","0","0","0","0"
Neenah,Neenah,WI,Wisconsin,"55139",Winnebago,"44.1671","-88.4761","25951","25951","1088",polygon,True,America/Chicago,54956 54957,"1840002244","0","0","0","0","0","0","0","0","0","0","0","0","1","1","0","0","0","0","0","0","0","0","0","0","0","0","0","0","0","0","0","0","1","1","1","1","0","0","0","0","1","1","0","0","0","0","0","0"
River Falls,River Falls,WI,Wisconsin,"55093",Pierce,"44.8600","-92.6221","15873.0","15510","915",polygon,True,America/Chicago,"54022","1840002289","0","0","0","0","0","0","0","0","0","0","0","0","0","0","0","0","0","0","0","0","0","0","0","0","0","0","0","0","0","0","0","0","0","1","0","0","0","0","0","0","1","1","0","0","0","0","0","0"
Eau Claire,Eau Claire,WI,Wisconsin,"55035",Eau Claire,"44.8203","-91.4951","107068.0","68587","815",polygon,True,America/Chicago,54703 54701 54702,"1840002296","0","0","0","0","0","0","0","0","0","0","0","0","1","1","1","1","0","0","0","0","0","0","0","0","0","0","0","0","0","0","0","0","1","1","1","0","0","0","0","0","1","1","0","0","0","0","0","0"
New Berlin,New Berlin,WI,Wisconsin,"55133",Waukesha,"42.9726","-88.1291","39740","39740","420",polygon,True,America/Chicago,53146 53151,"1840003025","0","0","0","0","0","1","0","0","0","0","0","0","1","1","0","0","0","0","0","0","0","0","0","0","0","1","0","0","0","0","0","0","1","1","0","0","0","0","0","0","1","1","0","0","0","0","0","0"
Cedarburg,Cedarburg,WI,Wisconsin,"55089",Ozaukee,"43.2991","-87.9887","11465","11465","916",polygon,True,America/Chicago,"53012","1840002825","0","0","0","0","0","0","0","0","0","0","0","0","0","0","0","0","0","0","0","0","0","0","0","0","0","0","0","0","1","1","0","0","0","1","0","0","0","0","0","0","1","1","0","0","0","0","0","0"
South Charleston,South Charleston,WV,West Virginia,"54039",Kanawha,"38.3482","-81.7110","12493","12493","611",polygon,True,America/New_York,25309 25303 25389,"1840006200","0","0","0","0","1","1","0","0","1","1","1","0","1","1","1","0","0","0","0","0","0","0","0","0","0","0","0","0","1","1","0","0","1","1","1","1","0","0","0","0","0","0","0","0","0","0","0","0"
Point Pleasant,Point Pleasant,WV,West Virginia,"54053",Mason,"38.8529","-82.1303","10708.0","4153","668",polygon,True,America/New_York,"25550","1840006048","0","0","0","0","0","1","0","0","0","0","0","0","0","0","0","0","0","0","0","0","0","0","0","0","0","0","0","0","1","1","1","0","1","1","0","0","0","0","0","0","0","0","0","0","0","0","0","0"
Clarksburg,Clarksburg,WV,West Virginia,"54033",Harrison,"39.2863","-80.3230","41453.0","15621","619",polygon,True,America/New_York,26301 26330 26306,"1840005767","0","0","0","0","0","0","0","0","0","0","0","0","0","0","0","0","0","0","0","0","0","0","0","0","0","0","0","0","1","1","0","0","1","1","1","1","0","0","0","0","0","0","0","0","0","0","0","0"
Wheeling,Wheeling,WV,West Virginia,"54069",Ohio,"40.0755","-80.6951","77206.0","27066","754",polygon,True,America/New_York,"26003","1840005510","0","0","0","0","0","0","0","0","0","0","0","0","0","0","0","0","0","0","0","0","0","0","0","0","0","0","0","0","0","1","0","0","1","1","1","0","0","0","0","0","1","0","0","0","0","0","0","0"
Martinsburg,Martinsburg,WV,West Virginia,"54003",Berkeley,"39.4582","-77.9776","17404","17404","1013",polygon,True,America/New_York,25401 25403 25404 25402,"1840005742","0","0","0","0","1","1","1","0","0","0","0","0","0","0","0","0","0","0","0","0","0","0","1","0","0","0","0","0","0","0","0","0","1","1","1","0","0","0","0","0","1","0","0","0","0","0","0","0"
Fairmont,Fairmont,WV,West Virginia,"54049",Marion,"39.4768","-80.1491","32988.0","18467","830",polygon,True,America/New_York,26554 26555,"1840005732","0","0","0","0","0","0","0","0","0","0","0","0","0","0","0","0","0","0","0","0","0","0","0","0","0","0","0","0","1","1","0","0","1","1","1","1","0","0","0","0","1","0","0","0","0","0","0","0"
Beckley,Beckley,WV,West Virginia,"54081",Raleigh,"37.7878","-81.1841","59629.0","16404","666",polygon,True,America/New_York,"25801","1840006350","0","0","0","0","0","0","0","0","0","0","0","0","0","0","0","0","0","0","0","0","0","0","0","0","0","0","0","0","0","0","0","0","1","1","1","0","0","0","0","0","0","0","0","0","0","0","0","0"
Saint Albans,Saint Albans,WV,West Virginia,"54039",Kanawha,"38.3769","-81.8198","10265","10265","1096",polygon,True,America/New_York,"25177","1840006201","0","0","0","0","0","1","0","0","1","1","0","0","1","1","0","0","0","0","0","0","0","0","0","0","0","0","0","0","1","1","0","0","1","1","1","1","0","0","0","0","0","0","0","0","0","0","0","0"
Huntington,Huntington,WV,West Virginia,"54011",Cabell,"38.4109","-82.4344","194155.0","47079","1120",polygon,True,America/New_York,25703 25702 25701 25705 25704 25706 25708 25709 25710 25711 25712 25713 25714 25716 25717 25718 25719 25720 25721 25722 25723 25724 25725 25726 25727 25728 25729 25755 25772 25773 25774 25775 25776 25777 25778,"1840006211","0","0","0","0","0","0","0","0","0","0","0","0","1","1","1","1","0","0","0","0","0","0","0","0","1","1","1","0","0","0","0","0","1","1","1","1","0","0","0","0","0","0","0","0","0","0","0","0"
Charleston,Charleston,WV,West Virginia,"54039",Kanawha,"38.3484","-81.6323","142858.0","47929","587",polygon,True,America/New_York,25305 25304 25303 25302 25301 25311 25312 25314 25317 25321 25322 25323 25324 25325 25326 25327 25328 25329 25330 25331 25332 25333 25334 25335 25336 25337 25338 25339 25350 25364 25375 25387 25392 25396,"1840006196","0","0","0","0","1","1","1","0","1","1","1","0","1","1","1","1","0","0","0","0","0","0","0","0","0","0","0","0","0","1","0","0","1","1","1","0","0","0","0","0","0","0","0","0","0","0","0","0"
Morgantown,Morgantown,WV,West Virginia,"54061",Monongalia,"39.6380","-79.9468","72453.0","30547","1181",polygon,True,America/New_York,26501 26505 26504,"1840005647","0","0","0","0","0","0","0","0","0","0","0","0","0","0","0","0","0","0","0","0","0","0","0","0","0","0","0","0","1","1","1","0","1","1","1","0","0","0","0","0","1","0","0","0","0","0","0","0"
Parkersburg,Parkersburg,WV,West Virginia,"54107",Wood,"39.2623","-81.5419","64253.0","30096","987",polygon,True,America/New_York,26104 26101 26103,"1840005786","0","0","0","0","1","1","0","0","0","0","0","0","0","0","0","0","0","0","0","0","0","0","0","0","0","0","0","0","0","1","0","0","1","1","1","1","0","0","0","0","0","0","0","0","0","0","0","0"
Weirton,Weirton,WV,West Virginia,"54029",Hancock,"40.4060","-80.5671","67082.0","18685","399",polygon,True,America/New_York,"26062","1840005405","0","0","0","0","0","0","0","0","0","0","0","0","0","0","0","0","0","0","0","0","0","0","0","0","0","0","0","0","1","1","0","0","1","1","1","0","0","0","0","0","1","0","0","0","0","0","0","0"
Bluefield,Bluefield,WV,West Virginia,"54055",Mercer,"37.2605","-81.2155","41653.0","9869","427",polygon,True,America/New_York,"24701","1840006401","0","0","0","0","0","0","0","0","0","0","0","0","0","0","0","0","0","0","0","0","0","0","0","0","0","0","0","0","0","0","0","0","1","1","1","1","0","0","0","0","0","0","0","0","0","0","0","0"
Elkins,Elkins,WV,West Virginia,"54083",Randolph,"38.9237","-79.8541","10988.0","7047","750",polygon,True,America/New_York,"26241","1840005991","0","0","0","0","1","1","0","0","0","0","0","0","0","0","0","0","0","0","0","0","0","0","0","0","0","0","0","0","0","0","0","0","0","0","0","0","0","0","0","0","0","0","0","0","0","0","0","0"
Charles Town,Charles Town,WV,West Virginia,"54037",Jefferson,"39.2746","-77.8632","23806.0","5957","393",polygon,True,America/New_York,"25414","1840005759","0","0","0","0","1","1","0","0","0","0","0","0","0","0","0","0","0","0","0","0","0","0","1","0","0","0","0","0","0","0","0","0","1","1","0","0","0","0","0","0","1","0","0","0","0","0","0","0"
Vienna,Vienna,WV,West Virginia,"54107",Wood,"39.3238","-81.5383","10370","10370","1014",polygon,True,America/New_York,"26105","1840005787","0","0","0","0","1","1","1","0","0","0","0","0","0","0","0","0","0","0","0","0","0","0","0","0","0","0","0","0","0","1","0","0","1","1","1","0","0","0","0","0","0","0","0","0","0","0","0","0"
Honolulu,Honolulu,HI,Hawaii,"15003",Honolulu,"21.3294","-157.8460","833671.0","350395","2234",polygon,True,Pacific/Honolulu,96859 96850 96815 96818 96822 96826 96813 96814 96817 96816 96819 96801 96802 96803 96804 96805 96806 96807 96808 96809 96810 96811 96812 96820 96823 96828 96830 96836 96837 96838 96839 96840 96841 96843 96844 96846 96847 96848 96849 96858 96898,"1840013305","1","1","1","0","1","1","1","0","1","1","1","0","1","1","1","1","0","0","0","0","0","0","0","0","1","1","1","0","0","0","0","0","0","0","0","0","0","0","0","0","0","0","0","0","0","0","0","0"
North Palm Beach,North Palm Beach,FL,Florida,"12099",Palm Beach,"26.8217","-80.0574","13057","13057","1551",polygon,True,America/New_York,"33408","1840018307","1","1","0","0","1","1","0","0","0","0","0","0","1","1","0","0","0","0","0","0","1","1","1","1","1","1","1","0","1","1","1","0","1","1","1","0","0","0","0","0","1","0","0","0","0","0","0","0"
Miami Springs,Miami Springs,FL,Florida,"12086",Miami-Dade,"25.8195","-80.2895","14424","14424","1898",polygon,True,America/New_York,33166 33011,"1840015152","1","1","1","0","0","1","0","0","0","0","0","0","1","1","1","0","0","0","0","0","1","1","1","1","1","1","0","0","0","1","0","0","1","1","1","1","0","0","0","0","1","0","0","0","0","0","0","0"
Bradenton,Bradenton,FL,Florida,"12081",Manatee,"27.4900","-82.5743","56508","56508","1524",polygon,True,America/New_York,34208 34209 34205 34206 34281,"1840014173","0","0","0","0","0","0","0","0","0","0","0","0","1","1","0","0","0","0","0","0","1","1","1","1","1","1","0","0","0","1","0","0","1","1","1","0","0","0","0","0","1","1","1","0","0","0","0","0"
Lakeland,Lakeland,FL,Florida,"12105",Polk,"28.0557","-81.9543","291281.0","108054","633",polygon,True,America/New_York,33803 33801 33805 33815 33811 33813 33802 33804 33806,"1840015108","1","1","1","0","0","0","0","0","0","0","0","0","1","1","1","1","0","0","0","0","1","1","1","1","0","0","0","0","0","0","0","0","1","1","1","0","0","0","0","0","1","1","1","0","0","0","0","0"
Winter Springs,Winter Springs,FL,Florida,"12117",Seminole,"28.6890","-81.2708","36635","36635","964",polygon,True,America/New_York,32708 32719,"1840015959","1","1","0","0","1","1","0","0","0","0","0","0","0","1","0","0","0","0","0","0","1","1","1","1","0","0","0","0","1","1","0","0","1","1","0","0","0","0","0","0","1","1","1","0","0","0","0","0"
Miami Lakes,Miami Lakes,FL,Florida,"12086",Miami-Dade,"25.9125","-80.3214","31087","31087","2118",polygon,True,America/New_York,33014 33016 33018 33002,"1840017275","1","1","0","0","0","1","0","0","0","0","0","0","1","1","1","0","0","0","0","0","1","1","1","1","1","1","0","0","1","1","0","0","1","1","1","0","0","0","0","0","1","0","0","0","0","0","0","0"
Estero,Estero,FL,Florida,"12071",Lee,"26.4277","-81.7951","33048","33048","522",polygon,True,America/New_York,33967 34135 33928 33929,"1840013129","0","0","0","0","0","0","0","0","0","0","0","0","1","1","1","0","0","0","0","0","1","1","1","1","0","0","0","0","0","1","0","0","0","0","0","0","0","0","0","0","1","0","0","0","0","0","0","0"
Ocala,Ocala,FL,Florida,"12083",Marion,"29.1803","-82.1495","164712.0","59110","497",polygon,True,America/New_York,34475 34474 34471 34470 32111 34477 34478 34483,"1840015067","0","0","0","0","0","0","0","0","0","0","0","0","1","1","1","1","0","0","0","0","1","1","1","1","0","0","0","0","0","0","0","0","0","0","0","0","0","0","0","0","1","1","0","0","0","0","0","0"
Ormond Beach,Ormond Beach,FL,Florida,"12127",Volusia,"29.2960","-81.1003","42816","42816","500",polygon,True,America/New_York,32174 32176 32173 32175,"1840015076","1","1","0","0","0","0","0","0","0","0","0","0","0","0","0","0","0","0","0","0","1","1","1","0","0","0","0","0","0","0","0","0","0","0","0","0","0","0","0","0","1","1","0","0","0","0","0","1"
Lake Placid,Lake Placid,FL,Florida,"12055",Highlands,"27.2970","-81.3717","16683.0","2269","243",polygon,True,America/New_York,33852 33862,"1840017248","0","0","0","0","0","1","0","0","0","0","0","0","0","0","0","0","0","0","0","0","1","1","1","1","0","0","0","0","0","0","0","0","0","0","0","0","0","0","0","0","1","0","0","0","0","0","0","0"
Daytona Beach,Daytona Beach,FL,Florida,"12127",Volusia,"29.1995","-81.0982","68055","68055","400",polygon,True,America/New_York,32124 32174 32117 32114 32118 32119 32115 32116 32120 32121 32126 32198,"1840015068","1","1","1","0","0","0","0","0","0","0","0","0","0","0","0","0","0","0","0","0","1","1","1","1","0","0","0","0","0","0","0","0","0","1","0","0","0","0","0","0","1","1","0","0","0","0","0","1"
Pinellas Park,Pinellas Park,FL,Florida,"12103",Pinellas,"27.8588","-82.7076","52854","52854","1283",polygon,True,America/New_York,33781 33782 33762 33760 33773 33780,"1840015112","1","1","0","0","1","1","0","0","0","0","0","0","1","1","1","0","0","0","0","0","1","1","1","1","1","1","0","0","1","1","1","0","1","1","1","0","0","0","0","0","1","1","1","0","0","0","0","0"
Edgewater,Edgewater,FL,Florida,"12127",Volusia,"28.9620","-80.9413","22399","22399","387",polygon,True,America/New_York,32141 32168 32132,"1840014043","0","1","0","0","1","1","0","0","0","0","0","0","0","1","0","0","0","0","0","0","1","1","1","1","0","0","0","0","0","0","0","0","1","1","1","0","0","0","0","0","1","1","0","0","0","0","0","1"
Key Biscayne,Key Biscayne,FL,Florida,"12086",Miami-Dade,"25.6908","-80.1653","13182","13182","4080",polygon,True,America/New_York,"33149","1840018333","1","1","0","0","0","1","0","0","0","0","0","0","1","1","0","0","0","0","0","0","1","1","1","1","1","1","1","0","0","0","0","0","1","1","0","0","0","0","0","0","1","0","0","0","0","0","0","0"
Winter Haven,Winter Haven,FL,Florida,"12105",Polk,"28.0122","-81.7018","245237.0","41280","499",polygon,True,America/New_York,33881 33880 33884 33883 33885 33888,"1840015970","0","0","0","0","0","0","0","0","0","0","0","0","1","1","1","1","0","0","0","0","1","1","1","1","0","0","0","0","0","0","0","0","1","1","1","0","0","0","0","0","1","1","1","0","0","0","0","0"
Pembroke Pines,Pembroke Pines,FL,Florida,"12011",Broward,"26.0128","-80.3387","170712","170712","1995",polygon,True,America/New_York,33029 33028 33024 33023 33027 33026 33025 33084,"1840015141","1","1","0","0","0","1","0","0","0","0","0","0","1","1","1","1","0","0","0","0","1","1","1","1","0","1","0","0","1","1","0","0","1","1","0","0","0","0","0","0","1","0","0","0","0","0","0","0"
Lighthouse Point,Lighthouse Point,FL,Florida,"12011",Broward,"26.2785","-80.0890","11242","11242","1880",polygon,True,America/New_York,"33064","1840015998","0","1","0","0","0","1","0","0","0","0","0","0","1","1","1","0","0","0","0","0","1","1","1","1","1","1","0","0","1","1","0","0","1","1","0","0","0","0","0","0","1","0","0","0","0","0","0","0"
Seminole,Seminole,FL,Florida,"12103",Pinellas,"27.8429","-82.7834","18576","18576","1398",polygon,True,America/New_York,33777 33772 33778 33775,"1840015978","0","1","0","0","0","1","0","0","0","0","0","0","1","1","0","0","0","0","0","0","1","1","1","1","0","1","0","0","1","1","0","0","1","1","0","0","0","0","0","0","1","1","1","0","0","0","0","0"
New Port Richey,New Port Richey,FL,Florida,"12101",Pasco,"28.2468","-82.7170","16256","16256","1379",polygon,True,America/New_York,34653 34652 34656,"1840015102","0","0","0","0","0","0","0","0","0","0","0","0","0","0","0","0","0","0","0","0","1","1","1","1","0","0","0","0","1","1","1","0","0","0","0","0","0","0","0","0","1","1","0","0","0","0","0","0"
Lake City,Lake City,FL,Florida,"12023",Columbia,"30.1892","-82.6469","25869.0","12163","389",polygon,True,America/New_York,32055 32025 32056,"1840015029","1","1","1","0","0","0","0","0","0","0","0","0","0","0","0","0","0","0","0","0","1","1","1","0","0","0","0","0","0","0","0","0","0","0","0","0","0","0","0","0","1","1","0","0","0","0","0","1"
Port Saint Lucie,Port Saint Lucie,FL,Florida,"12111",St. Lucie,"27.2796","-80.3883","432589.0","189344","614",polygon,True,America/New_York,34986 34983 34987 34984 34952 34953 34985,"1840015119","0","0","0","0","0","0","0","0","0","0","0","0","1","1","1","1","0","0","0","0","1","1","1","1","0","0","0","0","1","1","0","0","1","1","0","0","0","0","0","0","1","0","0","0","0","0","0","0"
